name,lat,lng,pincode,type
Vohuman Cafe,18.53255479726013,73.87683391571045,411001,Breakfast
EVVIVA Sky Lounge,18.531412676928273,73.87670773171725,411001,Lounge
Hidden Place - The Crazy Frog,18.536545723812523,73.87539379659546,411001,Pub
Gajalee,18.527477945365064,73.87821504932214,411001,Seafood
Conrad Pune,18.535019901932454,73.88305602024062,411001,Hotel
Zamus,18.53648968182744,73.8758983980925,411001,BBQ
Poona Club,18.522973762245087,73.8791395488057,411001,Indian
Kapila Kathi Kabab,18.53488822484841,73.8762967028389,411001,Kebab
La Bouchee d'Or,18.53893142977607,73.87667715007233,411001,Bakery
Blue Nile Restaurant,18.52168432950116,73.87755259434938,410001,Indian
Sheraton Grand Pune,18.530105842924414,73.87137017215163,411001,Hotel
La Pizzeria,18.539621085556846,73.88340065713508,411001,Italian
Kue Bar,18.535322048652308,73.87193867357229,411001,Hotel Bar
Mainland China,18.538874069434044,73.87539689680744,411001,Chinese
Abs Fitness & Wellness Club,18.51960456608613,73.87412652726975,411001,Gym
Diamond Queen,18.518235663925047,73.88001085306523,411001,Indian
Dorabjee's,18.51911583551871,73.87685022743341,411001,Supermarket
Suonmoi Chinese Restaurant,18.537519061853448,73.87984084727901,411001,Chinese
Little Italy,18.53959814741138,73.88346389148616,411001,Italian
Coconut Grove,18.5256809132634,73.86698863631743,411001,Seafood
Savya Rasa,18.53887406264487,73.8865607199056,411001,South Indian
Inox,18.52692776021287,73.87809068238184,411001,Movie Theater
Touché The Sizzler (The Place),18.51858264880105,73.87856485813023,411001,Steakhouse
Phoenix Market City East Court,18.533137766747238,73.87235212810954,411001,Mall
Kayani Bakery,18.51479706269301,73.87985980267678,411001,Bakery
Starbucks,18.539341390980805,73.88660174742675,411001,Coffee Shop
JJ Garden Wada Pav,18.516492359111737,73.87883521094803,411001,Food Truck
Hidden Place - The Hangout,18.539651495140603,73.88702296368126,411001,Pub
Mahesh Lunch Home,18.52063292197414,73.87235968390644,411001,Seafood
Dario's Restaurant,18.537206767573423,73.88881333674352,411001,Italian
"The Bombay Bronx, Pune",18.539235189258516,73.87512606929815,411001,Pub
Ahling Chinese,18.532165091735802,73.87676620340925,411001,Chinese
Cream Craver,18.521121878289538,73.87714020224023,411001,Vegetarian / Vegan
Vivanta by Taj - Blue Diamond,18.538479258585582,73.88629047698636,411001,Hotel
The Yogi Tree,18.541224732843972,73.88771981420507,411001,Indian
Domino's Pizza,18.5320286019098,73.8767760370835,411001,Pizza
Venky's Chicken,18.513503048807866,73.87976573679676,411001,Fast Food
Garden Vada Pav,18.517273510439413,73.87728365473252,411001,Fast Food
Main Street,18.51622868793453,73.87881224203392,411001,Plaza
Cafe Toons,18.51627179552993,73.87887552615932,411001,Sports Bar
Nandu's Parathas,18.535991740207297,73.87597707156488,411001,Indian
Boat Club,18.541582735239178,73.88025474503291,411001,Bar
Mughal's,18.51569010232164,73.87961173532855,411001,Indian
Osho Teerth Park,18.535932024959568,73.89086723327637,411001,Park
Chingari,18.529928247216265,73.87132123650838,411001,Indian
Juice World,18.517262070131107,73.87947614029554,411001,Juice Bar
Supriya,18.51942060875905,73.87572864086361,411001,Indian
Subway,18.51589893159622,73.87959171465702,411001,Fast Food
Osho Ashram,18.536454822063433,73.88805127031414,411001,Yoga Studio
Dravida's Organic Bistro,18.53562685652481,73.87643158435822,411001,Bistro
Dorabjee & Sons Restaurant,18.515215292987282,73.87692348133679,411001,Parsi
Rama Krishna,18.518692898717,73.87848896977292,411001,Indian
Hite Bar,18.515297639433705,73.87394363280072,411001,Fast Food
YOKO sizzlers,18.53495479585261,73.8756827023155,411001,Restaurant
Kareem's,18.51423826998531,73.87980916072576,411001,Indian
Latitude,18.538490441633385,73.88634530650525,411001,Multicuisine Indian
11 East Street Cafe,18.512403447489135,73.88031499121894,411001,Bar
Nawab Asia,18.522446370333007,73.87794761244764,411001,Indian
Naturals Ice Cream,18.519415304409666,73.87606002024928,411001,Ice Cream
German Bakery,18.53960203749367,73.88768501825994,411001,Bakery
Oakwood Residence Naylor Road Pune,18.53527259919302,73.88461935079478,411001,Hotel
O Hotel,18.540015365651918,73.88779209902417,411001,Hotel
Tanishq,18.54008985702351,73.8831882132427,411001,Jewelry
George Restaurant,18.517313900653377,73.87935388638768,411001,Indian
Cream Corner,18.51717014471052,73.87952090230074,411001,Snacks
Oh! Calcutta,18.538781372812778,73.87509394466052,411001,Seafood
Coffee House,18.519033178150792,73.87734206929967,400001,Indian
Sante,18.53754542041741,73.88883066515585,411001,Café
Chutney's,18.536521498926245,73.87597743292272,411001,Indian
The Mugshot Lounge,18.539166996176817,73.88598699145462,411001,Lounge
Badshah,18.514381234818085,73.8798577502319,411001,Indian
Radio Hotel,18.5139005525893,73.87732921010343,411001,Indian
Karachi Sweet Mart,18.51517540681883,73.87879317782782,411001,Indian
Cafe Yezdan,18.514896093356153,73.8767392864501,411001,Breakfast
Kapila Garden Restaurant,18.534157807850196,73.87649811013837,411001,Indian
cafe coffee day,18.5356564402876,73.88569131139757,411001,Café
Just Baked,18.535604199492415,73.87618802587299,411001,Bakery
Bund Garden,18.5410219845637,73.88389404865349,411001,Garden
Green Villa,18.5403014452217,73.8914367813706,411001,Middle Eastern
Zaika The Veg Treat,18.512241877992427,73.87877778865771,411001,Indian Chinese
Food Story,18.53925528386031,73.87541855539207,411001,Mughlai
Cafe Euthanasia,18.53527208353114,73.87831446192322,411001,Café
Carrots N Celery,18.538004116631857,73.88160294538334,411001,Hotel Bar
St Laurn Business Hotel Pune,18.538639588193277,73.88558662978774,411001,Indian
Sicilia,18.539167971671706,73.87537316362946,411001,Italian
Soy,18.53707590325458,73.88120099467704,411001,Chinese
Sigree,18.539702705588766,73.8751471727626,411001,Indian
Paprika Hot Rock,18.539195273607245,73.87537219139938,411027,Mediterranean
Buddha Paradise,18.540324808265943,73.89113921040499,411001,Fast Food
Harajuku,18.53996633617768,73.88758042920274,411001,Japanese
Sangam Wadi Neeta Bus Docks,18.533454543724485,73.86028119422761,411001,Bus Station
Raja Dinkar Kelkar museum,18.510743623888896,73.85438919067383,411002,History Museum
Sujata Mastani,18.511792754341577,73.85214493967393,411030,Ice Cream
Shree Wadeshwar Bhuvan,18.510752727983352,73.85374824193698,411030,Vegetarian / Vegan
Shrikrishna Bhuvan,18.51349411364069,73.85507354346112,411009,Snacks
Tilak Hotel,18.50960261815985,73.84688277838784,411030,Snacks
Bhagat Tarachand,18.514332265559556,73.85131729012238,411002,Indian
Masemari,18.505643889009608,73.85227656568195,411030,Seafood
Lal Mahal,18.518719674058865,73.85655641555786,411030,Historic Site
Hotel Madhuban,18.519248295410485,73.84868804177536,411030,Tea Room
Parvati,18.498190564461044,73.84958786400306,411002,Trail
Manasi Malai Gola,18.509658968315318,73.85372858334871,411002,Desserts
Mad Over Donuts,18.519335111404256,73.84531961315069,411004,Donuts
Jayshree Garden,18.504916886557126,73.85426809288236,411002,Vegetarian / Vegan
Chitale Bandhu Mithaiwale,18.51360263696441,73.85380148377794,411030,Desserts
Café GoodLuck,18.5173883002662,73.8414854187446,411002,Café
Fish Curry Rice,18.51641491600367,73.85093360732121,411030,Seafood
Barbeque Nation,18.516237355048084,73.84222283288595,411002,BBQ
Krishna Juice Bar,18.52355342051691,73.84765077882606,411002,Juice Bar
Madinah Hotel,18.507210780715518,73.87501620615589,411042,Indian
SP Biryani House,18.508067134805508,73.85035559087343,411030,Indian
P.N. GADGIL & CO.,18.51448373993062,73.85217361271135,411030,Jewelry
Sukanta,18.51694169413758,73.84428399256002,India,Vegetarian / Vegan
Badshahi Mess,18.508755414267316,73.84897126474321,411002,Indian
Hotel Agatya,18.514450921596094,73.85427023461997,411002,Indian
Ganraj Restaurant,18.509120894706307,73.85364690561192,411002,Vegetarian / Vegan
Grahak Peth,18.507649444578256,73.85063253217139,411002,Convenience Store
Jayashree Paavbhaji,18.504979638515653,73.85429139284874,411002,Indian
Mohan Ice Cream,18.520619663670587,73.84606955610744,411004,Ice Cream
Om Jai Shankar Pani Puri,18.511730576956282,73.87641365049377,411001,Snacks
Abs Fitness & Wellness Club,18.51960456608613,73.87412652726975,411002,Gym
Bal Gandharva Ranga Mandir,18.52233273885281,73.84801999609671,411002,Theater
Hite Bar,18.515297639433705,73.87394363280072,411001,Fast Food
Aufside,18.501410117028158,73.87215673724431,411002,Gastropub
Supreme Corner,18.520528059619732,73.84616365830843,411004,Fast Food
Coconut Grove,18.5256809132634,73.86698863631743,411002,Seafood
Aware Maratha Khanawal,18.512948403914418,73.84519971682283,411002,Indian
Natural Ice Cream,18.52312637552247,73.84746530397125,411002,Ice Cream
Bipin Snacks And Juice Bar,18.513013126098517,73.83992106106976,411002,Snacks
Janjira Hotel,18.509113911280735,73.84372031997646,411002,Indian
Café Coffee Day,18.5231306426117,73.84834705709581,411002,Coffee Shop
Mahesh Lunch Home,18.52063292197414,73.87235968390644,411002,Seafood
KFC,18.51636540601343,73.84271277231954,411004,Fast Food
Saras Baug,18.50142641728614,73.85359649517171,411002,Garden
Mathura restaurant,18.51886094656049,73.84477436845866,411002,Indian
Janaseva Bhojanalaya,18.515952515103418,73.84241580963135,411002,Indian
Shivsagar,18.520151692146218,73.84589420653944,411002,Restaurant
Hotel Shreyas,18.519169540574115,73.84406229354899,411002,Maharashtrian
Mad Over Donuts,18.50124107245583,73.87242003091887,411042,Donuts
Sai Service Bajaj,18.52225999753082,73.85018514373338,411002,Motorcycle Shop
Nagbramhambha,18.49204565875299,73.8613372231632,411002,Fast Food
Darshan foods,18.51402082342707,73.84097794716021,411004,Vegetarian / Vegan
Top In Town,18.515419965563137,73.84175779790851,411002,Restaurant
Chitale Bandhu Mithaiwale,18.515742642741714,73.8418978810121,411004,Desserts
Saffron,18.507729238653617,73.84420581641643,411030,Indian
Sweekar,18.500642802529022,73.8448957093083,411038,Food Truck
PVR,18.501188,73.872457,411037,Cineplex
Subhadra Restaurant,18.519195658929494,73.84497365296683,411002,Indian
Shoppers Stop,18.501303803923292,73.872378724562,411042,Men's Store
Shantai Hotel Pune,18.519619386289705,73.87108814195811,411002,B & B
Kalyan Bhel,18.50306885136935,73.86881086175427,411037,Fast Food
McDonald's,18.518368987944104,73.8444406350638,411005,Fast Food
Rajendra Pavbhaji & Juice Bar,18.519502394847766,73.86765447164639,411011,Snacks
Domino's Pizza,18.51624192519409,73.84230837180795,400027,Pizza
Costa Coffee,18.501313430292214,73.87244840928385,411002,Coffee Shop
Deccan Gymkhana Club,18.515179330336036,73.84052753448486,411004,Gym / Fitness
Sarovar,18.515991059013285,73.84172211306785,411002,Bar
Shivaji market,18.51345054053528,73.87646365635534,411002,Department Store
Champion Sports,18.516327890618015,73.84169096663962,411004,Sporting Goods
KFC @ Kumar Pacific,18.501290609426736,73.87250717333636,411002,Fast Food
Raasta Cafe,18.519694368148173,73.87089003366609,411002,Comfort Food
Pride Of Hyderabad,18.51715297926503,73.87466669082642,411002,Indian
Girija Pav Bhaji Center,18.506250066857902,73.85235816418904,411002,Snacks
jayashree Hotel,18.504119543642545,73.85471062745097,411002,Asian
Silver Leaf,18.5056943347793,73.85290159504191,411030,Men's Store
Cafe Paradise,18.51286873676579,73.83988203563321,411002,Café
Jawaharlal Nehru Stadium,18.5021363976308,73.85556936264038,411037,Cricket
Hypercity,18.501314498911192,73.87240668106101,411002,Mall
McDonald's,18.501312843826653,73.87244759576802,411036,Fast Food
Reliance Digital,18.49981664560182,73.86079430580139,411042,Electronics
Kumar Pacific Mall,18.50139523130165,73.87238114152176,411042,Mall
Eddie's Kitchen,18.517966187668407,73.87454079751964,411002,Chinese
Subway,18.524498008706377,73.86868000030518,411001,Sandwiches
Patil Plaza,18.49597432221832,73.85447892964636,411002,Office
Bawa (Baba) Tea Stall,18.52268357548617,73.86730447770131,411002,Coffee Shop
Yashwant Kutchi Dabeli,18.515508590516852,73.84062845087894,411004,Food Truck
Aaoji Khhaoji,18.56265703054219,73.82931038865844,411003,Indian
Hotel Maharaja,18.582983520875874,73.8252146287508,411003,Hotel Bar
Khadki Railway Station,18.56388939016318,73.84032979676618,411020,Train Station
Thai House's Kitchen,18.566753981317337,73.8311574495556,411020,Thai
cafe coffee day,18.586988386004965,73.8330987833624,411003,Coffee Shop
Ashok hotel,18.586189811849145,73.8329896556364,411003,Snacks
Pune IT Park Cafeteria,18.566838282588943,73.83024421197084,411003,Cafeteria
M.M. Restaurant,18.56196617331934,73.8365046868337,411003,Diner
Dapodi Railway Station,18.581092713630795,73.83282309214898,411003,Train Station
Poona General Stores,18.566367234354402,73.84984748189946,411003,Department Store
Hotel Ashok,18.579005255335822,73.82817074494245,411012,Hotel
Rajesh Trading Co. Khadki,18.565225637715805,73.8507192481124,411003,Department Store
Monginis Cake Shop,18.564799058224494,73.85059864402436,411003,Bakery
Mega Mart,18.587151902530387,73.83314609527588,411003,Department Store
Bhojwani,18.58488661254856,73.8332710901755,411031,Desserts
Henny's Food Truck,18.55928890013511,73.84909970134031,411003,Food Truck
McDonald's,18.586755319937218,73.83314473183907,411012,Fast Food
Nisarg (निसर्ग),18.50673697431568,73.8320165290297,411004,Seafood
Cafe Cofee Day,18.508026286758323,73.83163630795073,411004,Café
Fish Curry Rice,18.510986233786202,73.82960666625144,411004,Seafood
Le Plaisir,18.51420497479481,73.83855092544634,411004,Bistro
Katakirr Misal,18.51137166374587,73.8336714487756,411004,Snacks
Aasing's Kitchen,18.514029983480278,73.82874953293054,411004,Burgers
Pastry Corner,18.50891985125201,73.83056534907344,411004,Bakery
Amruteshwar,18.508532197249476,73.83092588213361,411004,Fast Food
Shaukeen,18.508270905470848,73.83150724373515,411004,Smoke Shop
Fish Curry Rice,18.51071284516824,73.82962345541556,411004,Seafood
Café GoodLuck,18.5173883002662,73.8414854187446,411004,Café
Chinese Room Oriental,18.5104821947705,73.83478848816188,411029,Chinese
National Film Archives of India (NFAI),18.515930148620026,73.8292254679222,411004,Entertainment
Yolkshire,18.50281548802023,73.82169046656016,411029,Breakfast
Woodlands Family Resto Bar,18.508078182054433,73.8347448816268,411004,Gastropub
The Lunges Health Club.,18.519542311093517,73.83118616765026,411004,Gym
Barbeque Nation,18.516237355048084,73.84222283288595,411004,BBQ
Cafe Durga (KHS),18.501452285663813,73.82732303967111,411004,Café
Hotel Roopali,18.519342952744918,73.84133382675628,411004,Indian
Bipin Snacks And Juice Bar,18.513013126098517,73.83992106106976,411004,Snacks
Endurance Fitness Club,18.49923478118509,73.8211173481927,411029,Gym / Fitness
Supreme Pav Bhaji and Pizza (Canal Road Branch),18.513946111091535,73.83078312673891,411004,Pizza
Kalyan Bhel,18.511857711700383,73.83007475273956,411004,Snacks
Panchvati Gaurav,18.51787902732216,73.83862257779535,411004,Indian
Tilak Hotel,18.50960261815985,73.84688277838784,411030,Snacks
Ranade Tapri,18.518439123214733,73.84118200709439,411004,Fast Food
Domino's Pizza,18.507,73.832,411004,Pizza
Casa Lolo,18.51693034172058,73.83394002914429,411004,Deli / Bodega
Vaishali | वैशाली,18.52090576092219,73.84128332227108,411004,South Indian
Cheezy Bites,18.508484555988723,73.82236999541298,411038,Café
Abhishek Veg,18.50384200573861,73.83058430995754,411004,Vegetarian / Vegan
Golds Gym Kothrud,18.49911870210435,73.8215596288252,411004,Gym
Flavours,18.51893083023205,73.84140902977073,411004,Sandwiches
Wadeshwar,18.5150663518212,73.82888481601346,411038,South Indian
Pu La Deshpande Garden,18.49306197499458,73.8358786482728,411004,Garden
Barometer,18.498824117966002,73.81923973485303,411038,Café
Mad Over Donuts,18.519335111404256,73.84531961315069,411004,Donuts
Coffee & Bread Art Cafe,18.504055300870068,73.83086798780846,411004,Café
Hidden Place - The Hangout,18.509107380632898,73.81227999661668,411004,Pub
Four Seasons Restaurant and Bar,18.503703479883818,73.82142888670693,411057,Indian
German Bakery WunderBar,18.52004603720397,73.83043022574356,411004,Bistro
Club Delhi,18.501605667700026,73.82206608679138,411004,Indian
Cafe Coffee Day,18.500139500489336,73.814253581129,411029,Café
Anand Veg. Restaurant,18.50917011481975,73.83273666174804,411038,Vegetarian / Vegan
Sukanta,18.51694169413758,73.84428399256002,India,Vegetarian / Vegan
Ganesh Bhel,18.50014825818537,73.82668734280797,411029,Chaat
Venus Traders,18.5194544398586,73.84206964204846,411004,Stationery Store
Club Solaris,18.505787702309885,73.81968902388618,411038,Gym / Fitness
Wadeshwar,18.518656145726464,73.84148287858373,411004,Vegetarian / Vegan
KFC,18.51636540601343,73.84271277231954,411004,Fast Food
The Chocolate Room,18.518450934654,73.84157442251627,411007,Coffee Shop
IDDOS,18.510441175381686,73.81644541010897,411019,South Indian
Janjira Hotel,18.509113911280735,73.84372031997646,411004,Indian
ARAI Hilltop,18.51973678124073,73.81767671579341,411004,Other Outdoors
Baagwan Juice Center,18.493140159697564,73.82588984228583,411004,Juice Bar
Venky's Xprs,18.502695235350348,73.82169748231658,411004,Fried Chicken
Naturals Icecream,18.502131151739757,73.81583585824387,411029,Ice Cream
Darshan foods,18.51402082342707,73.84097794716021,411004,Vegetarian / Vegan
Cocoberry,18.520363094135984,73.84116377766922,411004,Yogurt
The Chocolate Room,18.509691206129006,73.81362140293946,411038,Desserts
Burger Barn Café,18.51096044070201,73.81550155331708,411 038,Burgers
Starbucks,18.52253776359269,73.84103656012874,411005,Coffee Shop
Gelato Italiano,18.50324558129647,73.81949200623144,411004,Ice Cream
Janaseva Bhojanalaya,18.515952515103418,73.84241580963135,411004,Indian
Aware Maratha Khanawal,18.512948403914418,73.84519971682283,411004,Indian
Ruchi,18.494487894211854,73.8253064424055,411004,Snacks
Top In Town,18.515419965563137,73.84175779790851,411004,Restaurant
P K Biryani,18.492513364457416,73.82852570562707,411004,Indian
Chitale Bandhu Mithaiwale,18.515742642741714,73.8418978810121,411004,Desserts
Manisha Bhel Panipuri Snacks Center,18.493215030926333,73.82562561652861,411052,Snacks
Sheetal Hotel,18.502301724622903,73.81611918532329,411029,Vegetarian / Vegan
Deccan Gymkhana Club,18.515179330336036,73.84052753448486,411004,Gym / Fitness
Sujata Mastani,18.501906169419435,73.81586314664574,411004,Desserts
Mathura restaurant,18.51886094656049,73.84477436845866,411004,Indian
Crossword,18.49910134374766,73.82105173610482,411004,Bookstore
Baskin-Robbins,18.503341180797243,73.81976235498921,411039,Ice Cream
Domino's Pizza,18.502158091825265,73.81531314776265,411038,Pizza
Hotel Shreyas,18.519169540574115,73.84406229354899,411004,Maharashtrian
Subway,18.50182018294553,73.82188315983868,411004,Sandwiches
Badshahi Mess,18.508755414267316,73.84897126474321,411004,Indian
Papa John's Pizza,18.504281799087444,73.82109437254846,411029,Pizza
Chai Express,18.502035861397975,73.8218653971952,411004,Tea Room
"Barista, FC Road",18.51909106888451,73.84147846395688,411004,Café
Saffron,18.507729238653617,73.84420581641643,411030,Indian
RushHrs,18.502561396434633,73.82174151883247,411004,Burgers
Mankar Dosa Center,18.50349749021075,73.8203436418931,411004,Food
Domino's Pizza,18.51624192519409,73.84230837180795,400027,Pizza
Cream California,18.519603551759623,73.84128340271279,411004,Desserts
Sweekar,18.500642802529022,73.8448957093083,411038,Food Truck
Hotel Satkar,18.490851162386935,73.83270187250773,411004,Seafood
Mmyra Lounge,18.522252047437274,73.8410116392219,INDIA,Hookah Bar
Anarse Samosewale,18.51228342571107,73.84585460374706,411004,Snacks
Swirls,18.503360231803583,73.819765435853,411029,Ice Cream
Durvankur Dining Hall,18.51069551002744,73.84614273724239,411004,Indian
Subhadra Restaurant,18.519195658929494,73.84497365296683,411004,Indian
McDonald's,18.518368987944104,73.8444406350638,411005,Fast Food
Venky's Xprs,18.521528849674343,73.84106106094669,411004,Burgers
Naad Pan & Smoke Shop,18.50165860814086,73.81607987445479,411038,Smoke Shop
Cafe Coffee Day,18.513671665362185,73.81546322120593,411038,Coffee Shop
Hot Basil Cafe,18.493735139716204,73.82530461484946,411052,Café
Doolally@1st Brewhouse,18.463242383117112,73.9192508325025,411060,Brewery
Corinthians Boutique Hotel,18.462957525664827,73.91900240369235,411060,Resort
Salsa,18.46319400024936,73.91919667391647,411005,Greek
Pyramisa Restaurant,18.46305313575475,73.91803921286866,411060,Asian
Sip and dine garden restaurant and bar,18.46518468233723,73.91873388171113,411048,Restaurant
Undri Junction,18.452764528415564,73.91512272487068,411005,Bus Station
The Spices,18.457393184526335,73.91290088282777,411005,Indian
Marrakesh,18.462950744055796,73.91265400992414,411005,Mediterranean
Hira Ki Tapri [H.K.T],18.57392690191187,73.88519646285826,411006,Tea Room
Reddys Vadapav Center,18.57444190979004,73.8924331665039,411006,Breakfast
Cafe Coffee Day,18.56395503616254,73.88407320145299,411006,Coffee Shop
Delhi Chaat Bhandar (DCB),18.56851740845968,73.88254062913661,411006,Fast Food
Domino's Pizza,18.570221831026505,73.87869165517397,411015,Pizza
Shoppers Orbit,18.570341721265248,73.87850790366784,411006,Mall
Sunshine Restaurant,18.57370528536497,73.88597841254337,411006,Indian
Hotel Shifa,18.57864676045178,73.8761420874216,411015,Chinese
Raviraj Snacks Center,18.580205,73.876269,411006,Snacks
Chai Tapri,18.573927876270773,73.88949823834253,411006,Food Truck
Anup Bakery,18.574173826223078,73.89064087616383,411015,Bakery
Kandi's Tea Stall,18.574400009759707,73.89311561156217,411006,Tea Room
Mad Momos,18.575221,73.895084,411006,Café
Sudama Bhel,18.575304392308873,73.89522726086082,411006,Fast Food
Amul Scooping Parlour,18.57102,73.86065,400103,Ice Cream
Hotel Madhuban,18.519248295410485,73.84868804177536,411030,Tea Room
Krishna Juice Bar,18.52355342051691,73.84765077882606,411007,Juice Bar
Lal Mahal,18.518719674058865,73.85655641555786,411030,Historic Site
Mad Over Donuts,18.519335111404256,73.84531961315069,411004,Donuts
Sujata Mastani,18.511792754341577,73.85214493967393,411030,Ice Cream
Bhagat Tarachand,18.514332265559556,73.85131729012238,411007,Indian
Bal Gandharva Ranga Mandir,18.52233273885281,73.84801999609671,411007,Theater
Café GoodLuck,18.5173883002662,73.8414854187446,411007,Café
Mohan Ice Cream,18.520619663670587,73.84606955610744,411004,Ice Cream
Raja Dinkar Kelkar museum,18.510743623888896,73.85438919067383,411007,History Museum
Modern PDMBA Sports Complex,18.52551169684312,73.84787007012933,411007,Stadium
Café Coffee Day,18.5231306426117,73.84834705709581,411007,Coffee Shop
Vaishali | वैशाली,18.52090576092219,73.84128332227108,411004,South Indian
Natural Ice Cream,18.52312637552247,73.84746530397125,411007,Ice Cream
Hotel Roopali,18.519342952744918,73.84133382675628,411004,Indian
J 1,18.524200873103304,73.84354604804945,411007,Maharashtrian
Fish Curry Rice,18.51641491600367,73.85093360732121,411030,Seafood
Shrikrishna Bhuvan,18.51349411364069,73.85507354346112,411009,Snacks
Barbeque Nation,18.516237355048084,73.84222283288595,411007,BBQ
Shahji's Paratha House,18.52260120168244,73.84441289536777,411007,Vegetarian / Vegan
Tilak Hotel,18.50960261815985,73.84688277838784,411030,Snacks
Supreme Corner,18.520528059619732,73.84616365830843,411004,Fast Food
Shree Wadeshwar Bhuvan,18.510752727983352,73.85374824193698,411030,Vegetarian / Vegan
Ranade Tapri,18.518439123214733,73.84118200709439,411007,Fast Food
Sukanta,18.51694169413758,73.84428399256002,India,Vegetarian / Vegan
Flavours,18.51893083023205,73.84140902977073,411007,Sandwiches
Le Plaisir,18.51420497479481,73.83855092544634,411004,Bistro
Venus Traders,18.5194544398586,73.84206964204846,411004,Stationery Store
Coconut Grove,18.5256809132634,73.86698863631743,411007,Seafood
Rahul Restaurant,18.531314528056868,73.84637889019726,411007,Indian
Sai Service Bajaj,18.52225999753082,73.85018514373338,411007,Motorcycle Shop
Shabree,18.52459075247133,73.8416670504523,411007,Indian
By The Way,18.525058508695786,73.84154053093603,411005,Italian
Chitale Bandhu Mithaiwale,18.51360263696441,73.85380148377794,411030,Desserts
Modern Cafe,18.527055894043603,73.85143946115741,411007,Indian
Wadeshwar,18.518656145726464,73.84148287858373,411004,Vegetarian / Vegan
Starbucks,18.52253776359269,73.84103656012874,411005,Coffee Shop
The Chocolate Room,18.518450934654,73.84157442251627,411007,Coffee Shop
P.N. GADGIL & CO.,18.51448373993062,73.85217361271135,411030,Jewelry
Panchvati Gaurav,18.51787902732216,73.83862257779535,411007,Indian
KFC,18.51636540601343,73.84271277231954,411004,Fast Food
Shivsagar,18.520151692146218,73.84589420653944,411007,Restaurant
Panchali Restaurant,18.52589862801796,73.85018246363045,411007,Fast Food
Mathura restaurant,18.51886094656049,73.84477436845866,411007,Indian
Cocoberry,18.520363094135984,73.84116377766922,411007,Yogurt
Hotel Agatya,18.514450921596094,73.85427023461997,411007,Indian
Sharvaree,18.524576447398676,73.84164666107726,411007,Indian
Subway,18.524296132510756,73.84133703465648,411004,Sandwiches
The Burger Barn cafe,18.524416131270343,73.84283250923293,411007,Burgers
Bipin Snacks And Juice Bar,18.513013126098517,73.83992106106976,411007,Snacks
Hotel Shreyas,18.519169540574115,73.84406229354899,411007,Maharashtrian
Aware Maratha Khanawal,18.512948403914418,73.84519971682283,411007,Indian
Flavors Chocolate Toast,18.526650630107948,73.84196664548828,411007,Sandwiches
Manasi Malai Gola,18.509658968315318,73.85372858334871,411002,Desserts
Mahesh Lunch Home,18.52063292197414,73.87235968390644,411007,Seafood
Janaseva Bhojanalaya,18.515952515103418,73.84241580963135,411007,Indian
Masemari,18.505643889009608,73.85227656568195,411030,Seafood
Badshahi Mess,18.508755414267316,73.84897126474321,411007,Indian
Subhadra Restaurant,18.519195658929494,73.84497365296683,411007,Indian
Janjira Hotel,18.509113911280735,73.84372031997646,411007,Indian
SP Biryani House,18.508067134805508,73.85035559087343,411030,Indian
Chitale Bandhu Mithaiwale,18.515742642741714,73.8418978810121,411004,Desserts
Top In Town,18.515419965563137,73.84175779790851,411007,Restaurant
"Barista, FC Road",18.51909106888451,73.84147846395688,411007,Café
McDonald's,18.518368987944104,73.8444406350638,411005,Fast Food
Darshan foods,18.51402082342707,73.84097794716021,411004,Vegetarian / Vegan
Jayshree Garden,18.504916886557126,73.85426809288236,411007,Vegetarian / Vegan
Grahak Peth,18.507649444578256,73.85063253217139,411007,Convenience Store
Mmyra Lounge,18.522252047437274,73.8410116392219,INDIA,Hookah Bar
Cream California,18.519603551759623,73.84128340271279,411004,Desserts
Shraavan,18.5304815209921,73.84408591365003,411007,Indian
Ganraj Restaurant,18.509120894706307,73.85364690561192,411007,Vegetarian / Vegan
Rolla Costa,18.5246486725534,73.84145819340506,411007,Restaurant
Dunkin',18.523475723661022,73.84122001442189,411007,Donuts
Domino's Pizza,18.51624192519409,73.84230837180795,400027,Pizza
Venky's Xprs,18.521528849674343,73.84106106094669,411007,Burgers
Deccan Gymkhana Club,18.515179330336036,73.84052753448486,411004,Gym / Fitness
Jayashree Paavbhaji,18.504979638515653,73.85429139284874,411007,Indian
Cafe Coffee Day,18.525053674327946,73.84151370702703,411007,Coffee Shop
Horn OK Please,18.5184227804663,73.84168248421332,411007,Indian
Sarovar,18.515991059013285,73.84172211306785,411007,Bar
Rajendra Pavbhaji & Juice Bar,18.519502394847766,73.86765447164639,411011,Snacks
Champion Sports,18.516327890618015,73.84169096663962,411004,Sporting Goods
Shantai Hotel Pune,18.519619386289705,73.87108814195811,411002,B & B
Saffron,18.507729238653617,73.84420581641643,411030,Indian
IMDR Canteen,18.520632569532395,73.83757009650316,411007,Breakfast
LSD Love Sugar Dough,18.53286341493285,73.84205307079452,411007,Desserts
Chaitanya Paratha,18.52414818447426,73.84159814225599,411004,Indian
Cafe Coffee Day,18.522245141196017,73.8409677565661,411007,Coffee Shop
The Ambassador Hotel,18.528144101764916,73.84093251967049,411004,Hotel
Kadhai,18.521520804203057,73.84109133649697,411007,Indian
Amrapali Restaurant - Pure Veg,18.519373652662015,73.84168928567068,411007,Indian
Rumaani,18.522823077409925,73.84098740953503,411007,Restaurant
Shopper's Stop,18.534331628997844,73.85190002869798,411007,Department Store
Raasta Cafe,18.519694368148173,73.87089003366609,411007,Comfort Food
Peppinos Sandwichs And More,18.51853911226199,73.84151513282426,411007,Juice Bar
Olent,18.524552,73.841829,411007,Seafood
Baker's Basket,18.517764707404258,73.84064122145718,411007,Bakery
Corn Club,18.529403188599254,73.84351982880692,411007,Fast Food
Sancheti Hospital,18.52958707659303,73.85293030992315,India,Hospital
Yolkshire,18.55357605468349,73.80688828707882,411008,English
Gold's Gym,18.553561008319413,73.80756434893296,411007,Gym
Crosswords,18.556177260208784,73.80913090623139,411008,Bookstore
Starbucks,18.55659485262278,73.80915264466924,411007,Coffee Shop
Lost The Plot,18.55441705754062,73.80480775361278,411007,Lounge
Mithas,18.55463494319024,73.80936941321386,411008,Desserts
Naturals Icecream,18.556192387421536,73.80916850500064,411007,Ice Cream
Air Life Studio,18.553572828434206,73.80696545202225,411008,Gym
Taareef,18.556076771010513,73.80912043821498,India,Indian
Deccan Hills,18.540068227898335,73.82299559809623,411008,Indian
Cafe Peter Donuts,18.55774038538134,73.80440120069147,411007,Donuts
Mainland China,18.55234036393954,73.80948306585718,411007,Chinese
Fab India,18.555290266247177,73.80932589757768,411008,Apparel
Cafe Old Skool,18.55347974158186,73.80757837391056,411008,Café
La Bouchee d'Or,18.558395340284914,73.8037872123466,411007,Bakery
Cream Stone,18.553448166130234,73.80255142769138,411008,Ice Cream
The Funky Kona,18.551464587807654,73.80474571774506,411008,Lounge
Effingut Brewerkz,18.554308771218146,73.79815783996047,411008,Brewery
Croma,18.55356205401556,73.80701587886603,411007,Electronics
Melange - High Spirited Dining,18.554732470044367,73.8046899746739,411008,Restaurant
Hoppipola - All Day Bar & Bonhomie,18.552291605240992,73.80910648699475,411027,Cocktail
Greenpark,18.551145775007786,73.80401144066602,411008,Indian
Seasons Hotel,18.55465215489737,73.80480538162773,411007,Hotel
Origin Bistro,18.552016,73.793615,411008,Bistro
Magnolia,18.553912690747158,73.80189240886845,411007,Asian
Baskin-Robbins,18.553160707309527,73.8026842820838,411045,Ice Cream
Sigree,18.55227372509111,73.80949640042047,411008,Indian
cafe Joshua,18.55784509437005,73.80487290332563,411008,Café
Makkhan Maar Ke,18.554067229606947,73.8018238901343,411008,Punjabi
Anna Idli,18.55281460198554,73.80320456394246,411008,South Indian
Juice Destination,18.553555132381188,73.8069045093852,411008,Food Court
Cinnamon Spice - Desi Tadka,18.555145297973432,73.80462477780765,411007,Indian
Sarjaa,18.553062528763242,73.80941163050875,411008,Indian
Falahaar,18.551961127599146,73.80405088066945,411008,Snacks
7 Seas Wine & Dine,18.55209856730055,73.8041892460724,411008,Restaurant
Kadhai,18.556076,73.80894,411007,Indian
Subway,18.555015528257325,73.79768696996805,411045,Sandwiches
Spice Story,18.554982868691443,73.7973978869876,411045,Indian
Chitale Bandhu Mithaiwale,18.55775436951706,73.80546744585911,411007,Desserts
Cafe Chokolade,18.55403715446756,73.80487595882266,411007,Café
Durga Café,18.555729297216264,73.80901965036686,411008,Indian
Teddy Boy,18.554458937690534,73.79839816149521,411008,Lounge
Rolls Mania,18.55352140677988,73.8082161049525,411008,Fast Food
Cakes And More,18.554555756191252,73.80493609150686,411007,Desserts
Kobe Sizzlers,18.555191629008856,73.8093514770763,411008,BBQ
Grub Shup Cafe,18.553610535302848,73.80703216565024,411008,Sandwiches
Ozone,18.556249930012935,73.80891501903534,411007,Mall
The Great Punjab Dhaba,18.549928497961417,73.80924224853516,411045,Indian
Cafe Coffee Day - The Lounge,18.55592980989016,73.80917950115018,411008,Coffee Shop
Tulsi Hotel,18.554995387234367,73.79788980168058,411008,Indian
Abhiman Restaurant,18.540212663259258,73.81911271320648,411016,Indian
Samsung Plaza,18.546999664522325,73.81810177211166,411008,Electronics
Sarja,18.553242963746875,73.80941926776393,411008,Indian
Reliance Footprint,18.554362202367138,73.80943388950085,411007,Shoes
April Rain,18.556556150900853,73.80915816535152,411008,Restaurant
Hotel Mahabaleshwar,18.55510844640419,73.79831030722927,411045,Indian
"Gelato italiano,baner p link road",18.548363854443053,73.79421679101496,411008,Desserts
Chhatrapati Shivaji International Airport,18.52710208067473,73.81509763832258,411008,Airport
"Cafe Chokolade, Pashan",18.541791153215385,73.82647275924683,411007,Café
Sai Leela,18.54134479496524,73.79215427292858,411008,Indian
Aniket Canteen,18.551128723496905,73.8246488571167,411008,Snacks
Adarsh Canteen,18.55481071867847,73.82205247879028,411008,Snacks
Nimantran Restaurant,18.486260800083077,73.85855417876233,411009,Indian
Jagat Bhari Kolhapuri Restaurant,18.488156243306488,73.857182047519,411037,Indian
Taljai Tekadi,18.481998566387208,73.84788790409162,411009,Mountain
Relax Pure Veg,18.49038966316352,73.84982821455138,411009,Vegetarian / Vegan
Parvati,18.498190564461044,73.84958786400306,411009,Trail
Kalyan Bhel,18.480669286664643,73.86694219197189,411009,Snacks
Pu La Deshpande Garden,18.49306197499458,73.8358786482728,411009,Garden
Sujata Mastani,18.480990389449282,73.8651912021299,411009,Ice Cream
Cafe Coffee Day,18.48889806530956,73.85776164231909,411009,Coffee Shop
Nagbramhambha,18.49204565875299,73.8613372231632,411009,Fast Food
Mankar Dosa Centre,18.491048922360832,73.85801673477192,411027,Southern / Soul
Hotel Wadeshwar,18.489700490006456,73.86318011638701,411037,Vegetarian / Vegan
Cafe Coffee Day,18.481000579367915,73.8629802780812,411048,Café
Sweekar,18.500642802529022,73.8448957093083,411038,Food Truck
Kolhapuri Katta,18.48877040894575,73.85702250358567,411046,Southern / Soul
Saras Baug,18.50142641728614,73.85359649517171,411009,Garden
Manasi Coffee Stop,18.48803337340496,73.85779248143719,411009,Coffee Shop
The Grand Malhar,18.480802449464502,73.8622337266806,411009,Seafood
Domino's Pizza,18.496379895360494,73.8387044212696,411009,Pizza
Cafe Bistro,18.490099609488315,73.858025867468,411009,Bistro
Pappu pan,18.480759214979404,73.8661910082023,411009,Smoke Shop
Cafe Chocolade,18.49090265181395,73.85788070128778,411009,Ice Cream
jayashree pavbhaji n juice,18.48916059755866,73.86735759641664,411009,Indian
Ruchira,18.481084514038635,73.85485420073964,411009,Restaurant
Reliance Fresh,18.48964565544959,73.84912841682454,411009,Convenience Store
Nityanand Bakery,18.490406370013055,73.85259147353136,411009,Bakery
D Mart,18.47925776438757,73.85708244475235,411009,Department Store
Domino's Pizza,18.487047789657183,73.85949443302302,411037,Pizza
Sawai Veg,18.49571491696292,73.83783979836153,400030,Indian
Mankar,18.48077567425053,73.86615021859045,411009,Snacks
Lavangi Mirchi Kolhapurchi,18.496576062196045,73.83969068527222,411009,Indian
Indapur Main Bus Station,18.116702575341776,75.0283972188594,411010,Bus Station
HDFC Bank,18.118934,75.023326,416103,ATM
Mauli,18.1247019046651,75.01339818981393,411010,Fast Food
Sonai Bajaj,18.12629934336255,75.0116979453132,411010,Motorcycle Shop
Axis Bank ATM,18.6071701,73.93739319,411047,ATM
Harantale,18.606693,73.941746,411011,Fishing Spot
State Bank of India ATM,18.5922431,73.9211286,411032,ATM
Oyo - Rajajigandha,18.606712,73.922905,410047,Hotel
aCOA's Play Ground,18.604981070291025,73.9212541883279,411011,Playground
Hotel Maharaja,18.582983520875874,73.8252146287508,411012,Hotel Bar
Amantran Pure Veg,18.591898545486192,73.83074599712145,411012,Restaurant
cafe coffee day,18.586988386004965,73.8330987833624,411012,Coffee Shop
Ashok hotel,18.586189811849145,73.8329896556364,411012,Snacks
McDonald's,18.59850141074531,73.83089324288922,411012,Fast Food
Mega Mart,18.587151902530387,73.83314609527588,411012,Department Store
Bhojwani,18.58488661254856,73.8332710901755,411031,Desserts
Dapodi Railway Station,18.581092713630795,73.83282309214898,411012,Train Station
Katepuram chowk,18.58581605733403,73.81610859473633,411012,Bus Station
Monginis Cake Shop,18.58163196977151,73.81613157095856,411012,Bakery
Choudhary Icecream,18.581829,73.815812,411012,Ice Cream
Krishna Chowk,18.581595368630197,73.81579267141066,411027,Bus Station
Thomson Restraunt,18.57891993470471,73.81610859473633,411027,Indian
tennis court,18.580921004402054,73.81523549631885,411012,Tennis Court
Hotel Swad,18.5865509814338,73.81429920887642,411018,Indian
Shilpa Restaurant and Bar,18.601950410009934,73.82551848641097,411012,Indian
Sher-e-Punjab,18.60232881587265,73.82558031654254,411012,Indian
Natural's Ice Cream,18.51020166635732,73.93138583545058,411028,Ice Cream
Amanora Town Centre,18.518746802768312,73.93520426899276,411028,Mall
"Abs Sports Club, Magarpatta",18.51086075158698,73.92617480840028,411013,Gym
Cinepolis VIP,18.519123836288394,73.93129490307122,411013,Cineplex
Crazy Noodles,18.518635834417463,73.93601579234219,411013,Chinese
Spaghetti Kitchen,18.51872114361258,73.93476261113675,411028,Italian
INOX,18.518703102205514,73.93599029674462,411013,Cineplex
Cafe Coffee Day - The Lounge,18.519157093878366,73.93088157343398,411013,Coffee Shop
Marrakesh,18.50943021158525,73.92829586774526,411028,Middle Eastern
Starbucks,18.518861437466494,73.93466537188995,411013,Coffee Shop
Dario's Espresso,18.51868872294623,73.93604239004564,411013,Italian
Cinépolis Megaplex,18.519138916151608,73.93126122437297,411028,Cineplex
Barbeque Nation,18.518691819954878,73.93589626933263,411013,BBQ
Rolls Mania,18.50960910109352,73.92854732879618,411013,Fast Food
Cafe Coffee Day,18.512372428353604,73.92869493017156,411013,Coffee Shop
Mainland China,18.518563534502544,73.9351726958475,411013,Chinese
Mad Over Donuts,18.518776625643696,73.93416574532803,411013,Donuts
Quiznos Sub,18.519117013024953,73.93108249767319,411013,Sandwiches
Gold's Gym,18.521173399438155,73.92655389331667,411013,Gym
Wah Marathi,18.519126435097398,73.93141038421493,411013,Indian
Zambar,18.518637077900113,73.93512246586336,411013,Indian
Dunkin',18.518852647453862,73.93314339428333,411013,Donuts
Central,18.518611280813023,73.93391837759341,411013,Department Store
Starbucks Coffee: A Tata Alliance,18.519106181534198,73.93141926770566,411028,Coffee Shop
TJs Brew Works,18.518384055649694,73.93545312065524,411013,Brewery
Hoppipola,18.518713198386607,73.93531890090146,411013,Bar
Destination Center,18.510255282208067,73.92672300338745,411013,Plaza
Agent Jacks Bar,18.518639069952634,73.9348133772197,411048,Bar
Cafe Mangii,18.518494992135164,73.93491569133691,411013,Italian
Mad Over Donuts,18.518764807078284,73.93432978721265,411028,Donuts
Bread Story,18.5097106101377,73.92832694711112,411013,Bakery
City Cafe,18.509278594665957,73.92837524414062,411013,Fast Food
Dunkin',18.518824058941494,73.93411929868674,411013,Donuts
Haagen-Dazs,18.518804236596463,73.93392220504848,411013,Ice Cream
Lifestyle,18.51898490181258,73.93108823836268,411013,Apparel
Cuba Libre: Cuban Pub,18.51922007348206,73.93242655510726,411013,Pub
Domino's Pizza,18.506,73.928,411028,Pizza
Fresco,18.518642909986795,73.93505110013005,411028,Mediterranean
Asia Seven,18.518678478784366,73.93505501417857,411013,Chinese
Baker Street,18.518780066308135,73.93423727965319,411028,Café
Subway,18.51864171904437,73.93607715219899,411013,Sandwiches
Deccan Harvest,18.514182537537568,73.92750318401147,411013,Indian
Subway,18.519031806165117,73.93072083389279,411013,Sandwiches
Cafe Coffee Day,18.518756479814108,73.9342283700502,411013,Coffee Shop
Vaibhavi Food Court,18.510084839876335,73.92801482361769,411028,Indian
McDonald's,18.519093641363643,73.93257466661993,411013,Fast Food
Chinese In Box,18.509660331526515,73.92842796146121,411013,Chinese
Amoeba,18.51853606759896,73.93577449783876,411013,Casino
Seasons Mall,18.51912190054771,73.9312661077869,411013,Mall
Burgs,18.51869872304549,73.9360433964115,411013,Burgers
Kokkita,18.502177,73.937133,411013,Indian
Punjabi Rasoi,18.50965378943666,73.9283382734881,411028,Indian
Pizza Hut,18.5185975718451,73.93533619567934,411028,Pizza
WTF,18.51918345989029,73.93226720227806,411013,Bar
China Grill,18.518969663708383,73.93066342688152,411013,Chinese
Sigree Global Grill,18.518592533150684,73.93511241988995,411013,Indian
Z plus restaurant,18.523863463950942,73.93258678212875,411013,Indian
McDonald's,18.5183522218318,73.93516993004495,411028,Fast Food
KFC,18.51868619923762,73.9355915361098,411028,Fast Food
Eagle Boys,18.519101626079436,73.93123749622983,411013,Australian
Barbeque Nation,18.517124503929505,73.92361371683938,411028,BBQ
"Big Bazaar, Amanora",18.518759218139582,73.93603251630282,411013,Department Store
"Rajdhani Thali - Amanora Town Centre, Pune",18.5186968392021,73.9360079467861,411028,Indian
Tupe Chay,18.50105561624327,73.93777640887943,411013,Coffee Shop
PVR Cinemas,18.562505625135998,73.91661263367239,411014,Cineplex
Chopsticks Spice Malabar,18.565244525751083,73.91311556130246,411014,Southern / Soul
Phoenix Market City,18.561950715024775,73.91689538955688,411014,Mall
Hyatt Regency Pune,18.55990628207152,73.91197700383984,411014,Hotel
PVR bluO,18.56161425879978,73.91713313145287,411014,Bowling Alley
Shizusan,18.56172188024092,73.91677481250974,411014,Asian
"Incognito - Restaurant, Bar And Cafe",18.562864,73.91641,411014,American
Natural Ice Cream,18.567612332430592,73.91774758728404,411014,Ice Cream
Falahaar,18.565389884597835,73.91815801138378,411014,Juice Bar
Perks 'N' Brews,18.567873223093553,73.91476633604545,411014,Coffee Shop
Picantos Mexican Grill,18.56542279944287,73.91097756239128,411014,Mexican
212 Cafe & Bar,18.56189312439181,73.91704901841942,411014,Bistro
Largo Pizzeria,18.566286913630677,73.91985042662145,411014,Pizza
Himalaya Momos,18.566084512943647,73.91082031493391,411014,Dumplings
Khalsa Dairy,18.56518320770147,73.91446787254112,411014,Cheese Shop
Cafe Goa,18.561795,73.90721,411014,Seafood
Four Points by Sheraton,18.56289000669395,73.92224154232781,411014,Hotel
Malaka Street,18.562226137705256,73.91659601818088,411014,Asian
Dorabjees,18.56834643694545,73.9074313307174,411014,Department Store
Tea Villa Cafe,18.56292533777101,73.91807645982914,411014,Café
Irani Cafe,18.56390459363436,73.915019181133,411014,Café
The Irish House,18.5622160840994,73.91650134367835,411014,Pub
Chopsticks,18.56522788197092,73.91317943463237,411014,Indian
The Cafe,18.559872882464752,73.9120250957047,411014,Café
Sambar,18.563567457826487,73.91793412525706,411014,Breakfast
Foodhall,18.562398522013652,73.91653520939822,411014,Gourmet
Mad Over Donuts,18.56228421087917,73.91699473727073,411014,Donuts
95 Pasta N Pizza,18.56100926467741,73.92003135571278,411014,Italian
Atmosphere 6,18.56548338519069,73.91374964689592,411014,Lounge
Kaveri,18.566443319762563,73.91831478427666,411014,Indian
Costa Coffee,18.560990447850457,73.92042039359502,411014,Coffee Shop
Indigo Delicatessen,18.562101949251208,73.91729007472406,411014,Deli / Bodega
Cream Centre,18.562634937012387,73.91672404293837,411014,Vegetarian / Vegan
Starbucks,18.562579574667865,73.9168336767092,411014,Coffee Shop
Cafe Coffee Day,18.566078668419934,73.91824872370637,411014,Coffee Shop
Coffee Jar,18.56964257949076,73.91064593371956,411014,Coffee Shop
Where Else,18.565310951730662,73.91397691821118,411014,Café
SuperDry Store,18.562096520113904,73.91670153777805,411014,Apparel
Westside,18.561272343735563,73.91710480766785,411014,Department Store
Rainforest Resto-Bar,18.561609894666777,73.91719343663195,411014,Diner
Cafe Coffee Day,18.56477578181925,73.91096033854033,411014,Coffee Shop
Classic Rock Coffee Co,18.548868508614838,73.90640149952664,411001,Pub
rude Lounge - Viman Nagar,18.561130057658403,73.91808305840722,411014,Lounge
Chili's Grill & Bar,18.5622488243238,73.9168538222229,411014,Tex-Mex
The Square - Novotel,18.559020105293943,73.91127170847597,411014,Café
Zara,18.56242013350659,73.91668027066117,411014,Apparel
Farmaish Restaurant and Lounge,18.56714281852266,73.91898533972515,411014,Restaurant
Sujata Mastani,18.565399540578944,73.91516865415437,411014,Desserts
Baker Street,18.562049421684552,73.91709562387287,411014,Café
Crazy Noodles,18.562483249649187,73.91650120298378,411014,Chinese
Reddy's,18.571088485483436,73.91139863285915,411014,Indian
Café Peter Donuts,18.565157525189825,73.90783481004392,411014,Café
Punjab Grill,18.561691142478065,73.9167728544049,411014,Indian
Incognito,18.56172996447685,73.91676846155126,411001,Café
The Flying Saucer Sky Bar,18.56845748483193,73.90842756155365,411014,Lounge
The Beer Cafe,18.56181009359538,73.9172007724292,411014,Distillery
Baan Tao,18.55376,73.904776,411014,Thai
Chaitanya Paranthas,18.56512934761254,73.91804890768915,411014,Indian
Burger King,18.561783059817998,73.91715647107169,411014,Fast Food
Northern Frontier,18.553327914000413,73.8997229549811,INDIA,Indian
The Flour Works,18.549672607616056,73.9009654570756,411006,Breakfast
Pizza Hut,18.561590668085298,73.91720431957066,411014,Pizza
Barbeque Nation,18.552487193869148,73.89954982678643,411014,BBQ
McDonald's,18.560996687911317,73.92035662931437,411006,Fast Food
Marrakesh,18.548693887854366,73.90561315531282,411006,Mediterranean
Chitale Bandhu Mithaiwale,18.554359923122185,73.90597923262453,411014,Desserts
Solaris Gym,18.550316314933724,73.90451512308518,411014,Gym
Toit,18.553989,73.905254,411006,Brewery
Hyatt Pune,18.554247604517535,73.90469311452972,411006,Hotel
Cafe Colombia,18.54928649288815,73.90328460290183,411014,Café
The Bounty Sizzlers,18.54872643719599,73.90538144450932,411014,Steakhouse
Subway,18.568392,73.90858,411014,Sandwiches
Wādeshwar,18.548982286430597,73.90587512513854,411014,Indian
Joggers Park,18.54986835990682,73.90242286235049,411014,Park
KFC,18.554293811699242,73.90412234942269,411014,Fast Food
La Terrazza,18.55971818777993,73.91196054090464,411014,Italian
Agakhan Palace,18.553477744009463,73.90202210275363,411014,Historic Site
Royal Orchid Central Hotel Pune,18.54623103859955,73.90646298332614,411014,Motel
Novotel,18.558890614106932,73.9111785072062,411014,Hotel
Punjabi Dhaba,18.565137276945084,73.91148354352389,411014,Indian
Kanak,18.55874456788427,73.90678413377148,411014,Indian
Cafe Milano,18.56558299454072,73.9109431146879,411014,Café
Green Thing Restaurant,18.5465498081351,73.9215317520246,411014,Indian
Reliance Fresh,18.547885456528643,73.9203777300302,411014,Department Store
McDonald's,18.55391417233906,73.90397307074613,411014,Fast Food
Mogaa Paratha,18.56514326589118,73.91198735019748,411014,Indian
Chaitanya Parantha,18.562144364447786,73.90889151913028,411014,Indian
Cream Centre,18.55019332882482,73.904356399231,411006,Vegetarian / Vegan
Al-Hifazat Seekh Kabab Centre,18.557054224118545,73.89716175873802,411006,BBQ
Alpha Q - The Mist Lounge,18.559169891585984,73.90667745769537,411014,Lounge
Pune Airport Arrival,18.57871751151574,73.90935547721332,411014,Airport Service
GreenField Veg,18.5534995622323,73.9057710552584,411006,Vegetarian / Vegan
Cafe Coffee Day,18.56501809356221,73.911002895052,411014,Café
Eatsome,18.564691356186966,73.90716531291659,411014,Fast Food
Soho,18.55414152709386,73.90541992079683,411014,Lounge
Pinxx 24 hours coffee shop,18.546210647444504,73.9064505688975,411014,Café
The Brew Pub,18.554104543677944,73.90327260773778,411014,Brewery
Blue Mushroom,18.56907684915282,73.90880160383219,411032,Indian
Aga Khan Palace (Mahatma Gandhi Memorial Museum),18.552227227608846,73.90140295028687,411006,Museum
Divisional Sports Complex,18.55966633668138,73.89877695330992,411014,Athletics & Sports
Hira Ki Tapri [H.K.T],18.57392690191187,73.88519646285826,411015,Tea Room
Reddys Vadapav Center,18.57444190979004,73.8924331665039,411015,Breakfast
Cafe Coffee Day,18.56395503616254,73.88407320145299,411006,Coffee Shop
Delhi Chaat Bhandar (DCB),18.56851740845968,73.88254062913661,411015,Fast Food
Domino's Pizza,18.570221831026505,73.87869165517397,411015,Pizza
Chai Tapri,18.573927876270773,73.88949823834253,411006,Food Truck
Anup Bakery,18.574173826223078,73.89064087616383,411015,Bakery
Kandi's Tea Stall,18.574400009759707,73.89311561156217,411015,Tea Room
Shoppers Orbit,18.570341721265248,73.87850790366784,411015,Mall
Mad Momos,18.575221,73.895084,411015,Café
Sudama Bhel,18.575304392308873,73.89522726086082,411015,Fast Food
Raviraj Snacks Center,18.580205,73.876269,411015,Snacks
Premlok Plaza,18.5754263896364,73.87657642364502,411015,Mall
Banana Leaf,18.575633108893097,73.87630631732631,411015,Indian
Vishrantwadi Choupati,18.57214013103386,73.87842751232242,411015,Snacks
Food Bazaar,18.57027104357956,73.87865720179329,411015,Mall
Spice Island,18.566281320654635,73.87831318950408,411006,Chinese
Suicide Lake,18.584136994504192,73.9024286038858,411015,Lake
JW Marriott Hotel Pune,18.5324152,73.8297728,411053,Hotel
Spice Kitchen,18.531886864925845,73.82957091082835,411016,Asian
Paasha,18.53207679304871,73.82956401247087,411053,Lounge
Pune Baking Company,18.531971811632015,73.82983372978156,411016,Bakery
PVR Cinemas ( Icon ),18.53382243569725,73.8297834433831,411016,Cineplex
Alto Vino,18.53197888529939,73.82979570889925,411016,Italian
"Lobby Lounge, JW Marriott",18.531915245410474,73.82962901996032,411016,Lounge
Miami,18.532031656442765,73.82983294825146,411053,Nightclub
Little Italy,18.534828001784856,73.83812201948804,411007,Italian
Crossword,18.534814421312817,73.8297701691517,411028,Bookstore
Kiva,18.538458921457806,73.83686293507155,411045,Lounge
Shakahari,18.53186512027384,73.82956454603062,411053,Vegetarian / Vegan
The Pavillion,18.532861,73.829802,411016,Mall
Vaishali | वैशाली,18.52090576092219,73.84128332227108,411004,South Indian
Hotel Roopali,18.519342952744918,73.84133382675628,411004,Indian
Chittaranjan Vatika,18.53211567654188,73.8375602848037,411016,Theme Park
Mini Wok,18.532703912393053,73.83405542211443,411016,Chinese
Café GoodLuck,18.5173883002662,73.8414854187446,411016,Café
J 1,18.524200873103304,73.84354604804945,411016,Maharashtrian
The Lunges Health Club.,18.519542311093517,73.83118616765026,411016,Gym
Tien,18.530260170328454,73.8324901968085,411016,Deli / Bodega
Mainland China,18.531659593909822,73.82975495714788,411016,Chinese
By The Way,18.525058508695786,73.84154053093603,411005,Italian
Coffee Stop,18.53643039728413,73.8338918928869,411016,Coffee Shop
Le Plaisir,18.51420497479481,73.83855092544634,411004,Bistro
Shabree,18.52459075247133,73.8416670504523,411016,Indian
Ranade Tapri,18.518439123214733,73.84118200709439,411016,Fast Food
Mad Over Donuts,18.519335111404256,73.84531961315069,411004,Donuts
Flavours,18.51893083023205,73.84140902977073,411016,Sandwiches
All Stir Fry,18.538021309078747,73.83565973310837,411016,Asian
South Indies,18.535064394049556,73.83839730865662,411007,Indian
Krishna Juice Bar,18.52355342051691,73.84765077882606,411016,Juice Bar
Panchvati Gaurav,18.51787902732216,73.83862257779535,411016,Indian
Starbucks,18.52253776359269,73.84103656012874,411005,Coffee Shop
Starbucks,18.5346313068626,73.82984338712804,411016,Coffee Shop
NH 37,18.53853115482067,73.83423913837106,411020,Indian
Subway,18.524296132510756,73.84133703465648,411004,Sandwiches
Barbeque Nation,18.516237355048084,73.84222283288595,411016,BBQ
German Bakery WunderBar,18.52004603720397,73.83043022574356,411004,Bistro
Shahji's Paratha House,18.52260120168244,73.84441289536777,411016,Vegetarian / Vegan
Sharvaree,18.524576447398676,73.84164666107726,411016,Indian
Tales And Spirits,18.5307837944114,73.82872334210879,411016,Bistro
Abs Fitness And Wellness Club,18.535397529843124,73.82993979850535,411016,Gym
Oriental Connexions,18.538021566123753,73.83564603949314,411016,Chinese
Venus Traders,18.5194544398586,73.84206964204846,411004,Stationery Store
Rahul Restaurant,18.531314528056868,73.84637889019726,411016,Indian
Flavors Chocolate Toast,18.526650630107948,73.84196664548828,411016,Sandwiches
Frozen Monkey,18.537631385267822,73.83542217764648,411016,Lounge
Aasing's Kitchen,18.514029983480278,73.82874953293054,411004,Burgers
Cocoberry,18.520363094135984,73.84116377766922,411016,Yogurt
Mohan Ice Cream,18.520619663670587,73.84606955610744,411004,Ice Cream
The Burger Barn cafe,18.524416131270343,73.84283250923293,411016,Burgers
Modern PDMBA Sports Complex,18.52551169684312,73.84787007012933,411016,Stadium
Wadeshwar,18.518656145726464,73.84148287858373,411004,Vegetarian / Vegan
Hotel Madhuban,18.519248295410485,73.84868804177536,411030,Tea Room
Casa Lolo,18.51693034172058,73.83394002914429,411016,Deli / Bodega
The Chocolate Room,18.518450934654,73.84157442251627,411007,Coffee Shop
Sukanta,18.51694169413758,73.84428399256002,India,Vegetarian / Vegan
National Film Archives of India (NFAI),18.515930148620026,73.8292254679222,411004,Entertainment
Natural Ice Cream,18.52312637552247,73.84746530397125,411016,Ice Cream
Bal Gandharva Ranga Mandir,18.52233273885281,73.84801999609671,411016,Theater
Supreme Corner,18.520528059619732,73.84616365830843,411004,Fast Food
Cafe Durga,18.529933172462222,73.83685728297691,411016,Café
Café Coffee Day,18.5231306426117,73.84834705709581,411016,Coffee Shop
Vetal Tekdi,18.522266437316244,73.81834876387788,411016,Trail
E Square,18.53761644157667,73.83531014089307,411007,Cineplex
Katakirr Misal,18.51137166374587,73.8336714487756,411004,Snacks
KFC,18.51636540601343,73.84271277231954,411004,Fast Food
Bipin Snacks And Juice Bar,18.513013126098517,73.83992106106976,411016,Snacks
Deccan Hills,18.540068227898335,73.82299559809623,411008,Indian
Subway,18.529155,73.830866,411016,Sandwiches
ARAI Hilltop,18.51973678124073,73.81767671579341,411016,Other Outdoors
Rich-O-Cream,18.538352878074058,73.83000386232472,411016,Ice Cream
Rolla Costa,18.5246486725534,73.84145819340506,411016,Restaurant
Mmyra Lounge,18.522252047437274,73.8410116392219,INDIA,Hookah Bar
Shraavan,18.5304815209921,73.84408591365003,411016,Indian
cafe coffee day,18.530578864852384,73.82944584358319,411016,Coffee Shop
Wadeshwar,18.5150663518212,73.82888481601346,411038,South Indian
Dunkin',18.523475723661022,73.84122001442189,411016,Donuts
Supreme Pav Bhaji and Pizza (Canal Road Branch),18.513946111091535,73.83078312673891,411004,Pizza
Mathura restaurant,18.51886094656049,73.84477436845866,411016,Indian
Hotel Shreyas,18.519169540574115,73.84406229354899,411016,Maharashtrian
"Barista, FC Road",18.51909106888451,73.84147846395688,411016,Café
Shivsagar,18.520151692146218,73.84589420653944,411016,Restaurant
Janaseva Bhojanalaya,18.515952515103418,73.84241580963135,411016,Indian
LSD Love Sugar Dough,18.53286341493285,73.84205307079452,411016,Desserts
Venky's Xprs,18.521528849674343,73.84106106094669,411016,Burgers
Cream California,18.519603551759623,73.84128340271279,411004,Desserts
Top In Town,18.515419965563137,73.84175779790851,411016,Restaurant
Chitale Bandhu Mithaiwale,18.515742642741714,73.8418978810121,411004,Desserts
Blues,18.543604249386306,73.83862888683001,411020,Pub
Darshan foods,18.51402082342707,73.84097794716021,411004,Vegetarian / Vegan
Modern Cafe,18.527055894043603,73.85143946115741,411016,Indian
Kalyan Bhel,18.511857711700383,73.83007475273956,411004,Snacks
Subhadra Restaurant,18.519195658929494,73.84497365296683,411016,Indian
Cafe Coffee Day,18.53047280848842,73.8293580474668,411016,Café
Panchali Restaurant,18.52589862801796,73.85018246363045,411016,Fast Food
Om Super Market,18.532822313417885,73.83411276249407,411016,Department Store
Asha Dining Hall,18.52002313997627,73.84309282946222,411016,Indian
Deccan Gymkhana Club,18.515179330336036,73.84052753448486,411004,Gym / Fitness
Urban Foundry,18.569289409666702,73.7747245463514,411017,Lounge
Incognito,18.570376414375,73.77460705928516,411045,Italian
Terttulia,18.569279945639824,73.77469467616115,411017,Bistro
Playboy Beer Garden,18.57049357355062,73.77390083744952,411017,Brewery
McDonald's,18.570420602793007,73.77461905317524,411045,Fast Food
Nawab Asia,18.569553019776944,73.77466783664346,411017,Indian
Way Down South,18.56636563963199,73.77070666006395,411045,South Indian
The Chocolate Room,18.574754959252665,73.77732956313457,411017,Coffee Shop
Idlicious,18.561765019102616,73.78364615844218,411017,South Indian
ARTHURS THEME,18.570498974751526,73.7739517705572,411017,French
Apache - High Street,18.569373153385165,73.77473114995384,411017,Bar
Shaolin- The Chinese Cuisine,18.58834307568542,73.78351414844718,411017,Chinese
Hotel Sadanand,18.568349587226646,73.76667067485646,411017,Indian
KTM Baner,18.567427,73.776001,411045,Motorcycle Shop
Paramhans Dining Hall,18.564306,73.77861,411045,Indian
Yaara Di Haveli,18.560873260187908,73.7682512868345,411017,Punjabi
CopaCabana,18.589073641597903,73.78248319675856,410027,Indian
Subway,18.570104742234818,73.77468498677447,411045,Sandwiches
D Mart,18.566741779358132,73.7695464347438,411045,Department Store
IDC Express,18.573778272662192,73.77698772493144,411045,Breakfast
Chhatrapati Shivaji Sports Complex,18.575558598527564,73.76100540161133,411017,Stadium
Gong Modern Asian,18.57046168149214,73.77414273325013,411045,Asian
Cafe Nook,18.56930805697316,73.78186532743666,411045,Café
Infinity - Post 91,18.565235891732762,73.77416769853876,411017,Indian
Wazwaan,18.56126861159746,73.7857538640578,411007,Indian
Baskin-Robbins,18.56421016957575,73.7771026285984,411017,Ice Cream
Apple 5,18.588492343565544,73.78193673011188,411027,American
Cafe Coffee Day,18.564362735673388,73.77908355741718,411017,Café
KFC,18.56490752716071,73.77448481271236,411017,Fast Food
Sarovar,18.582646266961657,73.76105613429112,411017,Diner
Zikomo,18.56413210967498,73.78000483139837,411045,Indian
Croma,18.590242592662218,73.77010487479674,411017,Electronics
Cafe Coffee Day,18.5884689083151,73.7828346796342,411057,Café
Khybar,18.588461606350666,73.78303515871008,411017,Indian
Jalebi Junction,18.56443868134892,73.77535752201368,411017,Fast Food
Holiday Inn,18.58088471470406,73.76051975858331,411045,Hotel
Domino's Pizza,18.566547499642557,73.76992446965724,411045,Pizza
Masalabar,18.570654,73.775084,411045,Indian
Sholay,18.588158845820093,73.78360293471191,411017,Indian
Balewadi Stadium,18.574745003725422,73.76100540161133,411017,Stadium
Cabaret,18.565784,73.77287,411045,Breakfast
The Flour Works,18.565544,73.773613,411045,Restaurant
Boulevard,18.570418739979683,73.76429620849366,411017,Café
Orchid Convention Center,18.57121034952789,73.76380796955365,411017,Concert Hall
Merlin's,18.571095353724,73.76381358175213,411017,Karaoke
Cafe Bay Leaf @ Holiday Inn Pune Hinjewadi,18.581002979550966,73.76082952282827,411045,Restaurant
Salt,18.563931621963707,73.78291069009109,411017,Asian
Raasta Bistro,18.563045407775913,73.78374394820321,411017,Gastropub
"V deck, sadanand regency",18.583792026809878,73.7608028839243,400058,Comfort Food
Balewadi Naka,18.56197843071439,73.78410013730202,411017,Fast Food
Sona Veg And Nonveg,18.56141277739136,73.78605342105374,411017,Indian
Indorilal,18.561422302294115,73.78632638008627,411045,Breakfast
Optimum Health Club,18.634550700242603,73.79824541838458,411033,Gym / Fitness
Space Studios,18.628401,73.804368,411018,Dance Studio
Sigree Global Grill,18.63292776865862,73.80006740939267,411044,Indian
Pizza Hut,18.629963460941116,73.8034425473035,411018,Pizza
Tiranga,18.62831330622216,73.80349711928908,411018,Indian
Cafe Coffee Day,18.627324969409205,73.80416634320369,411018,Coffee Shop
Beyond Fitness,18.633731105269526,73.79904398302361,411018,Gym
China Grill,18.63310323960585,73.80014522152304,411033,Chinese
Keys Hotel Pimpri-Pune,18.6319699273361,73.80155262333722,411 018,Hotel
Ratna Hotel,18.625636510782794,73.80521272370953,411018,Indian
Croma,18.625418668232076,73.80167393314457,411018,Electronics
KFC,18.633109030968345,73.80013947700532,411018,Fast Food
Solty Chinese Fast Food,18.63303767525297,73.81753885949446,411018,Chinese
Mahadev Patiswala,18.62014583042024,73.80362062431706,411018,Breakfast
Empire Garden,18.636224469147,73.82081866460958,411018,Indian
Hungry Cupid,18.624781,73.820558,411018,Sandwiches
Amul Ice Age,18.625316088772788,73.82164578727503,411018,Ice Cream
Ginger Hotel Pune,18.627507745349124,73.8042582536056,411018,Hotel
Foodland Pimpri,18.623158239267713,73.81922184858446,411018,Indian
Supreme Restro And Bar,18.630544909628096,73.80258662652834,411018,Indian
Pimpri Market,18.62184955775321,73.80229365951044,411018,Market
Nagina Pani Puri,18.617048263549805,73.81721496582031,411018,Snacks
Bombay Salon & Spa,18.616129421308063,73.81699317737034,411018,Cosmetics
Tata Motors Main Canteen,18.65041893614635,73.81199580807784,411018,Food & Drink
The Fern Residency,18.621726,73.830236,411026,Hotel
Shell,18.64858354,73.80672659,411019,Gas Station
DoubleTree by Hilton,18.64241343459833,73.79849466234091,411019,Hotel
Bird Valley Resto bar,18.65677283122612,73.80351987604139,411019,Restaurant
Domino's Pizza,18.653,73.81,411019,Pizza
PapaJee's,18.664049104804803,73.80981300958096,411019,Indian
Thermax Chowk,18.660597,73.79355,411019,Intersection
Mayur Misal,18.652293427104095,73.79291274239826,411019,Snacks
Aaoji Khhaoji,18.56265703054219,73.82931038865844,411003,Indian
Kiva,18.538458921457806,73.83686293507155,411045,Lounge
All Stir Fry,18.538021309078747,73.83565973310837,411016,Asian
NH 37,18.53853115482067,73.83423913837106,411020,Indian
Blues,18.543604249386306,73.83862888683001,411020,Pub
Oriental Connexions,18.538021566123753,73.83564603949314,411020,Chinese
The Melting Pot,18.542888724814215,73.83823920532502,411020,Café
Khadki Railway Station,18.56388939016318,73.84032979676618,411020,Train Station
Open Canteen University,18.550449230807217,73.82742406174269,411020,Restaurant
Thai House's Kitchen,18.566753981317337,73.8311574495556,411020,Thai
Tandoori Point,18.540496429304195,73.83026374035593,411020,Fried Chicken
Screen 3,18.538230942983983,73.83481979370117,411007,Cineplex
M.M. Restaurant,18.56196617331934,73.8365046868337,411020,Diner
Baker's Delight,18.544595209819054,73.83545937363185,411020,Sandwiches
Mantri Kishor Park,18.543917246418605,73.83691771636005,411007,Park
Henny's Food Truck,18.55928890013511,73.84909970134031,411020,Food Truck
Pune IT Park Cafeteria,18.566838282588943,73.83024421197084,411020,Cafeteria
Medicure Chemist & Druggist,18.541140148887486,73.83893966674805,411007,Pharmacy
Monginis Cake Shop,18.564799058224494,73.85059864402436,411003,Bakery
Rajesh Trading Co. Khadki,18.565225637715805,73.8507192481124,411020,Department Store
Poona General Stores,18.566367234354402,73.84984748189946,411003,Department Store
Radhika Restaurant,18.54050941608817,73.83012933902005,411016,Indian
Sidewalk Cafe,18.540251085782398,73.82971005218339,411016,Café
"Cafe Chokolade, Pashan",18.541791153215385,73.82647275924683,411007,Café
Yaara Di Haveli,18.560873260187908,73.7682512868345,411021,Punjabi
Bottle Rock,18.546889538944182,73.77274911228194,411021,Beer Garden
Rastafa,18.549217289243686,73.77240590968016,411045,Italian
The Ruby,18.561968,73.738945,412115,Multicuisine Indian
Veer Da Dhaba,18.54692055630193,73.77281667709372,411045,Indian
Hotel Madhuban,18.519248295410485,73.84868804177536,411030,Tea Room
Krishna Juice Bar,18.52355342051691,73.84765077882606,411022,Juice Bar
Lal Mahal,18.518719674058865,73.85655641555786,411030,Historic Site
Mad Over Donuts,18.519335111404256,73.84531961315069,411004,Donuts
Sujata Mastani,18.511792754341577,73.85214493967393,411030,Ice Cream
Bhagat Tarachand,18.514332265559556,73.85131729012238,411022,Indian
Bal Gandharva Ranga Mandir,18.52233273885281,73.84801999609671,411022,Theater
Café GoodLuck,18.5173883002662,73.8414854187446,411022,Café
Mohan Ice Cream,18.520619663670587,73.84606955610744,411004,Ice Cream
Raja Dinkar Kelkar museum,18.510743623888896,73.85438919067383,411022,History Museum
Modern PDMBA Sports Complex,18.52551169684312,73.84787007012933,411022,Stadium
Café Coffee Day,18.5231306426117,73.84834705709581,411022,Coffee Shop
Vaishali | वैशाली,18.52090576092219,73.84128332227108,411004,South Indian
Natural Ice Cream,18.52312637552247,73.84746530397125,411022,Ice Cream
Hotel Roopali,18.519342952744918,73.84133382675628,411004,Indian
J 1,18.524200873103304,73.84354604804945,411022,Maharashtrian
Fish Curry Rice,18.51641491600367,73.85093360732121,411030,Seafood
Shrikrishna Bhuvan,18.51349411364069,73.85507354346112,411009,Snacks
Barbeque Nation,18.516237355048084,73.84222283288595,411022,BBQ
Shahji's Paratha House,18.52260120168244,73.84441289536777,411022,Vegetarian / Vegan
Tilak Hotel,18.50960261815985,73.84688277838784,411030,Snacks
Supreme Corner,18.520528059619732,73.84616365830843,411004,Fast Food
Shree Wadeshwar Bhuvan,18.510752727983352,73.85374824193698,411030,Vegetarian / Vegan
Ranade Tapri,18.518439123214733,73.84118200709439,411022,Fast Food
Sukanta,18.51694169413758,73.84428399256002,India,Vegetarian / Vegan
Flavours,18.51893083023205,73.84140902977073,411022,Sandwiches
Le Plaisir,18.51420497479481,73.83855092544634,411004,Bistro
Venus Traders,18.5194544398586,73.84206964204846,411004,Stationery Store
Coconut Grove,18.5256809132634,73.86698863631743,411022,Seafood
Rahul Restaurant,18.531314528056868,73.84637889019726,411022,Indian
Sai Service Bajaj,18.52225999753082,73.85018514373338,411022,Motorcycle Shop
Shabree,18.52459075247133,73.8416670504523,411022,Indian
By The Way,18.525058508695786,73.84154053093603,411005,Italian
Chitale Bandhu Mithaiwale,18.51360263696441,73.85380148377794,411030,Desserts
Modern Cafe,18.527055894043603,73.85143946115741,411022,Indian
Wadeshwar,18.518656145726464,73.84148287858373,411004,Vegetarian / Vegan
Starbucks,18.52253776359269,73.84103656012874,411005,Coffee Shop
The Chocolate Room,18.518450934654,73.84157442251627,411007,Coffee Shop
P.N. GADGIL & CO.,18.51448373993062,73.85217361271135,411030,Jewelry
Panchvati Gaurav,18.51787902732216,73.83862257779535,411022,Indian
KFC,18.51636540601343,73.84271277231954,411004,Fast Food
Shivsagar,18.520151692146218,73.84589420653944,411022,Restaurant
Panchali Restaurant,18.52589862801796,73.85018246363045,411022,Fast Food
Mathura restaurant,18.51886094656049,73.84477436845866,411022,Indian
Cocoberry,18.520363094135984,73.84116377766922,411022,Yogurt
Hotel Agatya,18.514450921596094,73.85427023461997,411022,Indian
Sharvaree,18.524576447398676,73.84164666107726,411022,Indian
Subway,18.524296132510756,73.84133703465648,411004,Sandwiches
The Burger Barn cafe,18.524416131270343,73.84283250923293,411022,Burgers
Bipin Snacks And Juice Bar,18.513013126098517,73.83992106106976,411022,Snacks
Hotel Shreyas,18.519169540574115,73.84406229354899,411022,Maharashtrian
Aware Maratha Khanawal,18.512948403914418,73.84519971682283,411022,Indian
Flavors Chocolate Toast,18.526650630107948,73.84196664548828,411022,Sandwiches
Manasi Malai Gola,18.509658968315318,73.85372858334871,411002,Desserts
Mahesh Lunch Home,18.52063292197414,73.87235968390644,411022,Seafood
Janaseva Bhojanalaya,18.515952515103418,73.84241580963135,411022,Indian
Masemari,18.505643889009608,73.85227656568195,411030,Seafood
Badshahi Mess,18.508755414267316,73.84897126474321,411022,Indian
Subhadra Restaurant,18.519195658929494,73.84497365296683,411022,Indian
Janjira Hotel,18.509113911280735,73.84372031997646,411022,Indian
SP Biryani House,18.508067134805508,73.85035559087343,411030,Indian
Chitale Bandhu Mithaiwale,18.515742642741714,73.8418978810121,411004,Desserts
Top In Town,18.515419965563137,73.84175779790851,411022,Restaurant
"Barista, FC Road",18.51909106888451,73.84147846395688,411022,Café
McDonald's,18.518368987944104,73.8444406350638,411005,Fast Food
Darshan foods,18.51402082342707,73.84097794716021,411004,Vegetarian / Vegan
Jayshree Garden,18.504916886557126,73.85426809288236,411022,Vegetarian / Vegan
Grahak Peth,18.507649444578256,73.85063253217139,411022,Convenience Store
Mmyra Lounge,18.522252047437274,73.8410116392219,INDIA,Hookah Bar
Cream California,18.519603551759623,73.84128340271279,411004,Desserts
Shraavan,18.5304815209921,73.84408591365003,411022,Indian
Ganraj Restaurant,18.509120894706307,73.85364690561192,411022,Vegetarian / Vegan
Rolla Costa,18.5246486725534,73.84145819340506,411022,Restaurant
Dunkin',18.523475723661022,73.84122001442189,411022,Donuts
Domino's Pizza,18.51624192519409,73.84230837180795,400027,Pizza
Venky's Xprs,18.521528849674343,73.84106106094669,411022,Burgers
Deccan Gymkhana Club,18.515179330336036,73.84052753448486,411004,Gym / Fitness
Jayashree Paavbhaji,18.504979638515653,73.85429139284874,411022,Indian
Cafe Coffee Day,18.525053674327946,73.84151370702703,411022,Coffee Shop
Horn OK Please,18.5184227804663,73.84168248421332,411022,Indian
Sarovar,18.515991059013285,73.84172211306785,411022,Bar
Rajendra Pavbhaji & Juice Bar,18.519502394847766,73.86765447164639,411011,Snacks
Champion Sports,18.516327890618015,73.84169096663962,411004,Sporting Goods
Shantai Hotel Pune,18.519619386289705,73.87108814195811,411002,B & B
Saffron,18.507729238653617,73.84420581641643,411030,Indian
IMDR Canteen,18.520632569532395,73.83757009650316,411022,Breakfast
LSD Love Sugar Dough,18.53286341493285,73.84205307079452,411022,Desserts
Chaitanya Paratha,18.52414818447426,73.84159814225599,411004,Indian
Cafe Coffee Day,18.522245141196017,73.8409677565661,411022,Coffee Shop
The Ambassador Hotel,18.528144101764916,73.84093251967049,411004,Hotel
Kadhai,18.521520804203057,73.84109133649697,411022,Indian
Amrapali Restaurant - Pure Veg,18.519373652662015,73.84168928567068,411022,Indian
Rumaani,18.522823077409925,73.84098740953503,411022,Restaurant
Shopper's Stop,18.534331628997844,73.85190002869798,411022,Department Store
Raasta Cafe,18.519694368148173,73.87089003366609,411022,Comfort Food
Peppinos Sandwichs And More,18.51853911226199,73.84151513282426,411022,Juice Bar
Olent,18.524552,73.841829,411022,Seafood
Baker's Basket,18.517764707404258,73.84064122145718,411022,Bakery
Corn Club,18.529403188599254,73.84351982880692,411022,Fast Food
Sancheti Hospital,18.52958707659303,73.85293030992315,India,Hospital
Axis Bank ATM,18.82563972,74.3765564,413514,ATM
Elite juice parlour,18.827556463049948,74.38278707221347,412210,Ice Cream
Khadakwasla Dam,18.435438663964515,73.77122522130473,411024,Lake
Khadakwasla Dam Way,18.43515331577944,73.76790438108539,411024,Beach
WET Canteen,18.431403,73.769552,411024,Indian
aapa chi tapree,18.433269038609815,73.76612903040456,411023,Coffee Shop
Aashish Beer Shopee,18.44458008950971,73.78779390104417,411024,Wine Shop
Anjani Garden,18.4447546,73.7622435,411024,Garden Center
SHREE PHATAKA MART,18.441142860339376,73.79058611463152,411024,Department Store
khanapur,18.40275535869624,73.7425136474125,411025,Scenic Lookout
The White Orchid Resort,18.400351497104925,73.74789199352574,411025,Resort
Sinhagad Fort,18.3858049312974,73.73680114746094,411025,Historic Site
Cloud 9,18.64007177895902,73.84988076102016,411026,Indian
Domino's Pizza,18.648,73.85,411315,Pizza
Physc Gym,18.63672651916756,73.84536090955913,411026,Gym
Shree Yash,18.627334754154425,73.84144400403844,411026,Indian
Kimling,18.565834369037912,73.80360347430938,411007,Chinese
Cafe Coffee Day,18.593421044897106,73.79546073318592,411027,Café
Greens & Olives,18.565594167569603,73.80452179945996,411007,Italian
The Chocolate Room,18.56656840719089,73.80744134307663,411027,Chocolate Shop
Oryzza,18.565317795637583,73.80697533565693,411007,Restaurant
Naturals Icecream,18.595114413559774,73.80389799740048,411027,Ice Cream
Café Maroo,18.564801152783108,73.80914093257947,411027,Korean
Kimling Rush,18.592981240142333,73.80120795444465,411027,Chinese
Pizza Hut,18.59317580232594,73.79839888049898,411027,Pizza
Sweet's Corner,18.565590806755935,73.80368720729818,411007,Desserts
Subway,18.59263924552307,73.79526232162308,411027,Sandwiches
Eatsome,18.565174469427685,73.80236706083059,411027,Snacks
Banana Leaf,18.56538970501196,73.80050535825356,411027,South Indian
D-Mart,18.566465767446267,73.80743732891905,411007,Mall
Bird Valley Bar And Restaurant,18.59057666296339,73.80429271999535,411027,North Indian
Rakshak Chowk,18.581728326269285,73.79805995069505,411027,Road
Sangvi Phata,18.57388656437457,73.80630899339191,411027,Bus Station
Thomson Restraunt,18.57891993470471,73.81610859473633,411027,Indian
Rahul Restaurant,18.565401347302938,73.80700156803137,411007,Indian
Gayatri Bhel,18.580953653797323,73.81892211776521,411027,Snacks
Hotel High Point,18.579875093372653,73.8199226111584,411027,Food Court
Maha Khavaiyye,18.59319958670853,73.79841611420241,411027,Vegetarian / Vegan
Bhayal Sweets,18.59545938795568,73.8034138251896,411027,Fast Food
Shaolin - The Chinese Cuisine,18.595483133413033,73.80342531403565,411027,Chinese
Sholay - Indian Experience,18.595776999797522,73.80352871362031,411027,Indian
Sujata mastani,18.59324815158805,73.79480274840566,411027,Ice Cream
Golds gym,18.597734380717164,73.80558548548538,411027,Gym
Manas Punjabi Thaba,18.587059610314032,73.79024717152907,411027,Indian
Ferns & Petals,18.56566154995792,73.80459717284522,411027,Flower Shop
Kareem's,18.565621,73.804575,411007,Indian
Rolls Mania,18.593953387083783,73.7939180669757,411027,Café
Cream Stone,18.597703214919267,73.8001796886258,411027,Ice Cream
Pet Pooja,18.593503515753348,73.79295295547878,411027,Diner
Vision Galleria,18.59379768371582,73.79279327392578,411027,Market
Wingate Wines,18.59009295839726,73.78922459393029,411027,Wine Shop
Natural's Ice Cream,18.51020166635732,73.93138583545058,411028,Ice Cream
"Abs Sports Club, Magarpatta",18.51086075158698,73.92617480840028,411013,Gym
Amanora Town Centre,18.518746802768312,73.93520426899276,411028,Mall
Crazy Noodles,18.518635834417463,73.93601579234219,411028,Chinese
Marrakesh,18.50943021158525,73.92829586774526,411028,Middle Eastern
Cinepolis VIP,18.519123836288394,73.93129490307122,411028,Cineplex
Spaghetti Kitchen,18.51872114361258,73.93476261113675,411028,Italian
INOX,18.518703102205514,73.93599029674462,411028,Cineplex
Cafe Coffee Day - The Lounge,18.519157093878366,73.93088157343398,411013,Coffee Shop
Starbucks,18.518861437466494,73.93466537188995,411028,Coffee Shop
Dario's Espresso,18.51868872294623,73.93604239004564,411028,Italian
Rolls Mania,18.50960910109352,73.92854732879618,411028,Fast Food
Cinépolis Megaplex,18.519138916151608,73.93126122437297,411028,Cineplex
Barbeque Nation,18.518691819954878,73.93589626933263,411028,BBQ
Domino's Pizza,18.506,73.928,411028,Pizza
Mainland China,18.518563534502544,73.9351726958475,411028,Chinese
Cafe Coffee Day,18.512372428353604,73.92869493017156,411028,Coffee Shop
Mad Over Donuts,18.518776625643696,73.93416574532803,411028,Donuts
Quiznos Sub,18.519117013024953,73.93108249767319,411013,Sandwiches
Wah Marathi,18.519126435097398,73.93141038421493,411028,Indian
Zambar,18.518637077900113,73.93512246586336,411028,Indian
Central,18.518611280813023,73.93391837759341,411028,Department Store
Dunkin',18.518852647453862,73.93314339428333,411028,Donuts
Destination Center,18.510255282208067,73.92672300338745,411028,Plaza
Bread Story,18.5097106101377,73.92832694711112,411013,Bakery
City Cafe,18.509278594665957,73.92837524414062,411013,Fast Food
TJs Brew Works,18.518384055649694,73.93545312065524,411013,Brewery
Starbucks Coffee: A Tata Alliance,18.519106181534198,73.93141926770566,411028,Coffee Shop
Hoppipola,18.518713198386607,73.93531890090146,411028,Bar
Agent Jacks Bar,18.518639069952634,73.9348133772197,411048,Bar
Cafe Mangii,18.518494992135164,73.93491569133691,411028,Italian
Mad Over Donuts,18.518764807078284,73.93432978721265,411028,Donuts
Dunkin',18.518824058941494,73.93411929868674,411028,Donuts
Haagen-Dazs,18.518804236596463,73.93392220504848,411028,Ice Cream
Kokkita,18.502177,73.937133,411028,Indian
Fresco,18.518642909986795,73.93505110013005,411028,Mediterranean
Asia Seven,18.518678478784366,73.93505501417857,411028,Chinese
Lifestyle,18.51898490181258,73.93108823836268,411028,Apparel
Cuba Libre: Cuban Pub,18.51922007348206,73.93242655510726,411028,Pub
Baker Street,18.518780066308135,73.93423727965319,411028,Café
Subway,18.51864171904437,73.93607715219899,411028,Sandwiches
Deccan Harvest,18.514182537537568,73.92750318401147,411013,Indian
Vaibhavi Food Court,18.510084839876335,73.92801482361769,411028,Indian
Subway,18.519031806165117,73.93072083389279,411028,Sandwiches
Chinese In Box,18.509660331526515,73.92842796146121,411028,Chinese
Cafe Coffee Day,18.518756479814108,73.9342283700502,411013,Coffee Shop
McDonald's,18.519093641363643,73.93257466661993,411028,Fast Food
Amoeba,18.51853606759896,73.93577449783876,411028,Casino
Punjabi Rasoi,18.50965378943666,73.9283382734881,411028,Indian
Seasons Mall,18.51912190054771,73.9312661077869,411013,Mall
Burgs,18.51869872304549,73.9360433964115,411028,Burgers
Pizza Hut,18.5185975718451,73.93533619567934,411028,Pizza
WTF,18.51918345989029,73.93226720227806,411028,Bar
China Grill,18.518969663708383,73.93066342688152,411013,Chinese
Tupe Chay,18.50105561624327,73.93777640887943,411028,Coffee Shop
Sigree Global Grill,18.518592533150684,73.93511241988995,411028,Indian
KFC,18.51868619923762,73.9355915361098,411028,Fast Food
McDonald's,18.5183522218318,73.93516993004495,411028,Fast Food
Eagle Boys,18.519101626079436,73.93123749622983,411028,Australian
Barbeque Nation,18.517124503929505,73.92361371683938,411028,BBQ
"Big Bazaar, Amanora",18.518759218139582,73.93603251630282,411028,Department Store
Bong Connection,18.501345317184605,73.94557719688224,411028,Seafood
"Rajdhani Thali - Amanora Town Centre, Pune",18.5186968392021,73.9360079467861,411028,Indian
Hidden Place - The Hangout,18.509107380632898,73.81227999661668,411029,Pub
Foods corner,18.508231164880495,73.80618663976394,411029,Food Court
CCD,18.507830483017422,73.80849757468624,411021,Café
Cafe Coffee Day,18.500139500489336,73.814253581129,411029,Café
The Chocolate Room,18.509691206129006,73.81362140293946,411038,Desserts
Le Petite Amour,18.500079160790044,73.81405297071419,411038,French
Barometer,18.498824117966002,73.81923973485303,411038,Café
Naturals Icecream,18.502131151739757,73.81583585824387,411029,Ice Cream
Endurance Fitness Club,18.49923478118509,73.8211173481927,411029,Gym / Fitness
IDDOS,18.510441175381686,73.81644541010897,411019,South Indian
Yashwantrao Chavan Natyagruha,18.5022778370707,73.8121796215922,411029,Theater
Burger Barn Café,18.51096044070201,73.81550155331708,411 038,Burgers
Yolkshire,18.50281548802023,73.82169046656016,411029,Breakfast
Golds Gym Kothrud,18.49911870210435,73.8215596288252,411029,Gym
McDonald's,18.50790844458206,73.79653085601878,411038,Fast Food
Sheetal Hotel,18.502301724622903,73.81611918532329,411029,Vegetarian / Vegan
Muktai Coffee Shop,18.50077447174248,73.80227388952476,411029,Café
Sudit Su's Chinese,18.495267323913957,73.812487704967,411029,Chinese
Domino's Pizza,18.502158091825265,73.81531314776265,411038,Pizza
Sujata Mastani,18.501906169419435,73.81586314664574,411029,Desserts
Venky's Xprs,18.49608710924992,73.81360417055494,411029,Fried Chicken
Subway,18.507147887723328,73.80382742322936,411029,Sandwiches
Club Solaris,18.505787702309885,73.81968902388618,411038,Gym / Fitness
Four Seasons Restaurant and Bar,18.503703479883818,73.82142888670693,411057,Indian
Cafe Coffee Day,18.508349077227138,73.790044135898,411038,Café
ARAI Hilltop,18.51973678124073,73.81767671579341,411029,Other Outdoors
Cheezy Bites,18.508484555988723,73.82236999541298,411038,Café
Feesta,18.508699058847625,73.8125012948326,411038,Italian
Club Delhi,18.501605667700026,73.82206608679138,411029,Indian
Gelato Italiano,18.50324558129647,73.81949200623144,411029,Ice Cream
Smokin' Joes,18.498773992806463,73.81354353805257,411029,Pizza
DJINN,18.51075946586421,73.79041476848448,411029,Café
Mirch Masala,18.493548696997465,73.81403641572999,411029,Indian
Naad Pan & Smoke Shop,18.50165860814086,73.81607987445479,411038,Smoke Shop
Venky's Xprs,18.502695235350348,73.82169748231658,411029,Fried Chicken
Maratha Samrat,18.501547482623906,73.81598496072596,411029,Diner
Baskin-Robbins,18.503341180797243,73.81976235498921,411039,Ice Cream
Cafe Coffee Day,18.513671665362185,73.81546322120593,411038,Coffee Shop
Café Creme,18.50992928603389,73.81607188270779,411029,Coffee Shop
Crossword,18.49910134374766,73.82105173610482,411029,Bookstore
One Way Foods,18.495559692382812,73.8110122680664,411029,Fast Food
Samartha Veg Restaurant,18.507621674695805,73.8083509965298,411038,Indian
Mankar Dosa Center,18.50349749021075,73.8203436418931,411029,Food
Badhai Sweets,18.501943746298785,73.80512206567253,411038,Desserts
Papa John's Pizza,18.504281799087444,73.82109437254846,411029,Pizza
Subway,18.50182018294553,73.82188315983868,411029,Sandwiches
Chai Express,18.502035861397975,73.8218653971952,411029,Tea Room
Swirls,18.503360231803583,73.819765435853,411029,Ice Cream
Khandesh,18.508374712783354,73.79220786321342,411029,Indian
RushHrs,18.502561396434633,73.82174151883247,411029,Burgers
Richie Rich,18.51400078674672,73.81541662208109,411038,Sandwiches
Tiranga,18.507021465385044,73.82335222366174,411004,Indian
Happy Singh Da Kitchen,18.508736,73.790405,411029,Indian
P. N. Gadgil Jewllers,18.510373553341942,73.81908317276607,411038,Jewelry
Sharao Lawns and Restaurant,18.512416925681354,73.81299112640764,411029,Beer Garden
Golden Dragon,18.502526342536516,73.81738440925233,411029,Asian
Hotel Durga,18.51038441362014,73.81628217454548,411029,Coffee Shop
Chaitanya Paranthas,18.50965556478937,73.8159714737534,411029,Indian
Cafe Durga,18.505985807748996,73.81760177268367,411029,Café
Cafe Coffee Day,18.49480928547573,73.81483915432135,411029,Café
Cafe Coffee Day,18.49594903471442,73.80929174361076,411038,Coffee Shop
Pizza Hut,18.503025829236684,73.82166917312145,411017,Pizza
Malwani Naka,18.502095588106695,73.8132882432402,411029,Seafood
Cad-B,18.503045968301688,73.82161734934778,411029,Desserts
McDonald's,18.504624207971283,73.8219214940627,411029,Fast Food
City Pride,18.499153982457212,73.82102158953215,411038,Cineplex
Spice Garden,18.511325401240335,73.8138122561101,411029,Indian
Hot Sip,18.510264697239393,73.81590827066078,411029,Chinese
Sai Palace,18.507437343320227,73.80637218111643,411029,Restaurant
Kimaya,18.504912367699458,73.8221083443388,411029,Indian
Chuulhaa,18.507997369816948,73.79707762545968,411038,Diner
4 Seasons Restaurant,18.503722061397383,73.82149505627106,411029,Indian
La Gustosa,18.501984,73.814224,411038,Italian
Harsh,18.50988817706223,73.81610955206783,411029,Restaurant
Cafe Eastwood,18.498686124757324,73.819274562179,411029,Pub
Hotel Pruthvi,18.494653067145514,73.81342936618688,411029,Indian
Krusty's,18.50163036820648,73.82201500731841,411004,Bistro
Siya Pure Veg,18.499060899438106,73.81934810090026,411038,Indian
Sunil Chai (Vishal Tea & Snacks House),18.506124669753262,73.79292368888855,411038,Tea Room
Bhagyalakshmi General Stores,18.514791020957954,73.81625794013324,411038,Convenience Store
World of Titan,18.510302239353052,73.81919887272039,411038,Accessories
Garden Court,18.5046189578293,73.78850896099667,411029,Indian
Purepur Kolhapur,18.493551511576136,73.81418432667722,411029,Indian
Heaven Snacks,18.509860198026608,73.82180087239031,411029,Fast Food
Starbucks Coffee: A Tata Alliance,18.502153706663517,73.82193048919723,411029,Coffee Shop
Royal Enfield - Siddh Auto,18.50845894044421,73.79039079155812,411029,Motorcycle Shop
Kheliya,18.50036591563687,73.82333448532565,411029,Toys & Games
Mad Over Donuts,18.519335111404256,73.84531961315069,411004,Donuts
Café GoodLuck,18.5173883002662,73.8414854187446,411030,Café
Barbeque Nation,18.516237355048084,73.84222283288595,411030,BBQ
Hotel Madhuban,18.519248295410485,73.84868804177536,411030,Tea Room
Hotel Roopali,18.519342952744918,73.84133382675628,411004,Indian
Sukanta,18.51694169413758,73.84428399256002,India,Vegetarian / Vegan
Le Plaisir,18.51420497479481,73.83855092544634,411004,Bistro
Vaishali | वैशाली,18.52090576092219,73.84128332227108,411004,South Indian
Sujata Mastani,18.511792754341577,73.85214493967393,411030,Ice Cream
Ranade Tapri,18.518439123214733,73.84118200709439,411030,Fast Food
Tilak Hotel,18.50960261815985,73.84688277838784,411030,Snacks
Flavours,18.51893083023205,73.84140902977073,411030,Sandwiches
Bhagat Tarachand,18.514332265559556,73.85131729012238,411030,Indian
Krishna Juice Bar,18.52355342051691,73.84765077882606,411030,Juice Bar
Mohan Ice Cream,18.520619663670587,73.84606955610744,411004,Ice Cream
Venus Traders,18.5194544398586,73.84206964204846,411004,Stationery Store
Supreme Corner,18.520528059619732,73.84616365830843,411004,Fast Food
KFC,18.51636540601343,73.84271277231954,411004,Fast Food
J 1,18.524200873103304,73.84354604804945,411030,Maharashtrian
Shahji's Paratha House,18.52260120168244,73.84441289536777,411030,Vegetarian / Vegan
Panchvati Gaurav,18.51787902732216,73.83862257779535,411030,Indian
Raja Dinkar Kelkar museum,18.510743623888896,73.85438919067383,411030,History Museum
The Chocolate Room,18.518450934654,73.84157442251627,411007,Coffee Shop
Bal Gandharva Ranga Mandir,18.52233273885281,73.84801999609671,411030,Theater
Wadeshwar,18.518656145726464,73.84148287858373,411004,Vegetarian / Vegan
Fish Curry Rice,18.51641491600367,73.85093360732121,411030,Seafood
Bipin Snacks And Juice Bar,18.513013126098517,73.83992106106976,411030,Snacks
Shree Wadeshwar Bhuvan,18.510752727983352,73.85374824193698,411030,Vegetarian / Vegan
Natural Ice Cream,18.52312637552247,73.84746530397125,411030,Ice Cream
Mathura restaurant,18.51886094656049,73.84477436845866,411030,Indian
Aware Maratha Khanawal,18.512948403914418,73.84519971682283,411030,Indian
Café Coffee Day,18.5231306426117,73.84834705709581,411030,Coffee Shop
Cocoberry,18.520363094135984,73.84116377766922,411030,Yogurt
Starbucks,18.52253776359269,73.84103656012874,411005,Coffee Shop
Modern PDMBA Sports Complex,18.52551169684312,73.84787007012933,411030,Stadium
Janaseva Bhojanalaya,18.515952515103418,73.84241580963135,411030,Indian
Shrikrishna Bhuvan,18.51349411364069,73.85507354346112,411009,Snacks
Hotel Shreyas,18.519169540574115,73.84406229354899,411030,Maharashtrian
Shabree,18.52459075247133,73.8416670504523,411030,Indian
Lal Mahal,18.518719674058865,73.85655641555786,411030,Historic Site
By The Way,18.525058508695786,73.84154053093603,411005,Italian
Shivsagar,18.520151692146218,73.84589420653944,411030,Restaurant
Top In Town,18.515419965563137,73.84175779790851,411030,Restaurant
Chitale Bandhu Mithaiwale,18.515742642741714,73.8418978810121,411004,Desserts
Janjira Hotel,18.509113911280735,73.84372031997646,411030,Indian
Subway,18.524296132510756,73.84133703465648,411004,Sandwiches
Sharvaree,18.524576447398676,73.84164666107726,411030,Indian
Darshan foods,18.51402082342707,73.84097794716021,411004,Vegetarian / Vegan
Katakirr Misal,18.51137166374587,73.8336714487756,411004,Snacks
P.N. GADGIL & CO.,18.51448373993062,73.85217361271135,411030,Jewelry
The Burger Barn cafe,18.524416131270343,73.84283250923293,411030,Burgers
Chitale Bandhu Mithaiwale,18.51360263696441,73.85380148377794,411030,Desserts
Subhadra Restaurant,18.519195658929494,73.84497365296683,411030,Indian
The Lunges Health Club.,18.519542311093517,73.83118616765026,411030,Gym
Badshahi Mess,18.508755414267316,73.84897126474321,411030,Indian
McDonald's,18.518368987944104,73.8444406350638,411005,Fast Food
"Barista, FC Road",18.51909106888451,73.84147846395688,411030,Café
Nisarg (निसर्ग),18.50673697431568,73.8320165290297,411030,Seafood
Casa Lolo,18.51693034172058,73.83394002914429,411030,Deli / Bodega
Masemari,18.505643889009608,73.85227656568195,411030,Seafood
Domino's Pizza,18.51624192519409,73.84230837180795,400027,Pizza
Aasing's Kitchen,18.514029983480278,73.82874953293054,411004,Burgers
Rahul Restaurant,18.531314528056868,73.84637889019726,411030,Indian
Cream California,18.519603551759623,73.84128340271279,411004,Desserts
Flavors Chocolate Toast,18.526650630107948,73.84196664548828,411030,Sandwiches
Manasi Malai Gola,18.509658968315318,73.85372858334871,411002,Desserts
Sai Service Bajaj,18.52225999753082,73.85018514373338,411030,Motorcycle Shop
SP Biryani House,18.508067134805508,73.85035559087343,411030,Indian
Deccan Gymkhana Club,18.515179330336036,73.84052753448486,411004,Gym / Fitness
Hotel Agatya,18.514450921596094,73.85427023461997,411030,Indian
Cafe Cofee Day,18.508026286758323,73.83163630795073,411004,Café
Mmyra Lounge,18.522252047437274,73.8410116392219,INDIA,Hookah Bar
Grahak Peth,18.507649444578256,73.85063253217139,411030,Convenience Store
Chinese Room Oriental,18.5104821947705,73.83478848816188,411029,Chinese
Fish Curry Rice,18.510986233786202,73.82960666625144,411004,Seafood
German Bakery WunderBar,18.52004603720397,73.83043022574356,411004,Bistro
National Film Archives of India (NFAI),18.515930148620026,73.8292254679222,411004,Entertainment
Venky's Xprs,18.521528849674343,73.84106106094669,411030,Burgers
Modern Cafe,18.527055894043603,73.85143946115741,411030,Indian
Jayshree Garden,18.504916886557126,73.85426809288236,411030,Vegetarian / Vegan
Panchali Restaurant,18.52589862801796,73.85018246363045,411030,Fast Food
Woodlands Family Resto Bar,18.508078182054433,73.8347448816268,411030,Gastropub
Dunkin',18.523475723661022,73.84122001442189,411030,Donuts
Rolla Costa,18.5246486725534,73.84145819340506,411030,Restaurant
Saffron,18.507729238653617,73.84420581641643,411030,Indian
Supreme Pav Bhaji and Pizza (Canal Road Branch),18.513946111091535,73.83078312673891,411004,Pizza
Ganraj Restaurant,18.509120894706307,73.85364690561192,411030,Vegetarian / Vegan
Amruteshwar,18.508532197249476,73.83092588213361,411030,Fast Food
Pastry Corner,18.50891985125201,73.83056534907344,411030,Bakery
Shaukeen,18.508270905470848,73.83150724373515,411004,Smoke Shop
Chittaranjan Vatika,18.53211567654188,73.8375602848037,411030,Theme Park
Fish Curry Rice,18.51071284516824,73.82962345541556,411030,Seafood
Wadeshwar,18.5150663518212,73.82888481601346,411038,South Indian
Jayashree Paavbhaji,18.504979638515653,73.85429139284874,411030,Indian
Shraavan,18.5304815209921,73.84408591365003,411030,Indian
Kalyan Bhel,18.511857711700383,73.83007475273956,411004,Snacks
Sweekar,18.500642802529022,73.8448957093083,411038,Food Truck
Domino's Pizza,18.507,73.832,411004,Pizza
Anand Veg. Restaurant,18.50917011481975,73.83273666174804,411038,Vegetarian / Vegan
Saras Baug,18.50142641728614,73.85359649517171,411030,Garden
Hotel Madhuban,18.519248295410485,73.84868804177536,411030,Tea Room
Krishna Juice Bar,18.52355342051691,73.84765077882606,411031,Juice Bar
Lal Mahal,18.518719674058865,73.85655641555786,411030,Historic Site
Mad Over Donuts,18.519335111404256,73.84531961315069,411004,Donuts
Sujata Mastani,18.511792754341577,73.85214493967393,411030,Ice Cream
Bhagat Tarachand,18.514332265559556,73.85131729012238,411031,Indian
Bal Gandharva Ranga Mandir,18.52233273885281,73.84801999609671,411031,Theater
Café GoodLuck,18.5173883002662,73.8414854187446,411031,Café
Mohan Ice Cream,18.520619663670587,73.84606955610744,411004,Ice Cream
Raja Dinkar Kelkar museum,18.510743623888896,73.85438919067383,411031,History Museum
Modern PDMBA Sports Complex,18.52551169684312,73.84787007012933,411031,Stadium
Café Coffee Day,18.5231306426117,73.84834705709581,411031,Coffee Shop
Vaishali | वैशाली,18.52090576092219,73.84128332227108,411004,South Indian
Natural Ice Cream,18.52312637552247,73.84746530397125,411031,Ice Cream
Hotel Roopali,18.519342952744918,73.84133382675628,411004,Indian
J 1,18.524200873103304,73.84354604804945,411031,Maharashtrian
Fish Curry Rice,18.51641491600367,73.85093360732121,411030,Seafood
Shrikrishna Bhuvan,18.51349411364069,73.85507354346112,411009,Snacks
Barbeque Nation,18.516237355048084,73.84222283288595,411031,BBQ
Shahji's Paratha House,18.52260120168244,73.84441289536777,411031,Vegetarian / Vegan
Tilak Hotel,18.50960261815985,73.84688277838784,411030,Snacks
Supreme Corner,18.520528059619732,73.84616365830843,411004,Fast Food
Shree Wadeshwar Bhuvan,18.510752727983352,73.85374824193698,411030,Vegetarian / Vegan
Ranade Tapri,18.518439123214733,73.84118200709439,411031,Fast Food
Sukanta,18.51694169413758,73.84428399256002,India,Vegetarian / Vegan
Flavours,18.51893083023205,73.84140902977073,411031,Sandwiches
Le Plaisir,18.51420497479481,73.83855092544634,411004,Bistro
Venus Traders,18.5194544398586,73.84206964204846,411004,Stationery Store
Coconut Grove,18.5256809132634,73.86698863631743,411031,Seafood
Rahul Restaurant,18.531314528056868,73.84637889019726,411031,Indian
Sai Service Bajaj,18.52225999753082,73.85018514373338,411031,Motorcycle Shop
Shabree,18.52459075247133,73.8416670504523,411031,Indian
By The Way,18.525058508695786,73.84154053093603,411005,Italian
Chitale Bandhu Mithaiwale,18.51360263696441,73.85380148377794,411030,Desserts
Modern Cafe,18.527055894043603,73.85143946115741,411031,Indian
Wadeshwar,18.518656145726464,73.84148287858373,411004,Vegetarian / Vegan
Starbucks,18.52253776359269,73.84103656012874,411005,Coffee Shop
The Chocolate Room,18.518450934654,73.84157442251627,411007,Coffee Shop
P.N. GADGIL & CO.,18.51448373993062,73.85217361271135,411030,Jewelry
Panchvati Gaurav,18.51787902732216,73.83862257779535,411031,Indian
KFC,18.51636540601343,73.84271277231954,411004,Fast Food
Shivsagar,18.520151692146218,73.84589420653944,411031,Restaurant
Panchali Restaurant,18.52589862801796,73.85018246363045,411031,Fast Food
Mathura restaurant,18.51886094656049,73.84477436845866,411031,Indian
Cocoberry,18.520363094135984,73.84116377766922,411031,Yogurt
Hotel Agatya,18.514450921596094,73.85427023461997,411031,Indian
Sharvaree,18.524576447398676,73.84164666107726,411031,Indian
Subway,18.524296132510756,73.84133703465648,411004,Sandwiches
The Burger Barn cafe,18.524416131270343,73.84283250923293,411031,Burgers
Bipin Snacks And Juice Bar,18.513013126098517,73.83992106106976,411031,Snacks
Hotel Shreyas,18.519169540574115,73.84406229354899,411031,Maharashtrian
Aware Maratha Khanawal,18.512948403914418,73.84519971682283,411031,Indian
Flavors Chocolate Toast,18.526650630107948,73.84196664548828,411031,Sandwiches
Manasi Malai Gola,18.509658968315318,73.85372858334871,411002,Desserts
Mahesh Lunch Home,18.52063292197414,73.87235968390644,411031,Seafood
Janaseva Bhojanalaya,18.515952515103418,73.84241580963135,411031,Indian
Masemari,18.505643889009608,73.85227656568195,411030,Seafood
Badshahi Mess,18.508755414267316,73.84897126474321,411031,Indian
Subhadra Restaurant,18.519195658929494,73.84497365296683,411031,Indian
Janjira Hotel,18.509113911280735,73.84372031997646,411031,Indian
SP Biryani House,18.508067134805508,73.85035559087343,411030,Indian
Chitale Bandhu Mithaiwale,18.515742642741714,73.8418978810121,411004,Desserts
Top In Town,18.515419965563137,73.84175779790851,411031,Restaurant
"Barista, FC Road",18.51909106888451,73.84147846395688,411031,Café
McDonald's,18.518368987944104,73.8444406350638,411005,Fast Food
Darshan foods,18.51402082342707,73.84097794716021,411004,Vegetarian / Vegan
Jayshree Garden,18.504916886557126,73.85426809288236,411031,Vegetarian / Vegan
Grahak Peth,18.507649444578256,73.85063253217139,411031,Convenience Store
Mmyra Lounge,18.522252047437274,73.8410116392219,INDIA,Hookah Bar
Cream California,18.519603551759623,73.84128340271279,411004,Desserts
Shraavan,18.5304815209921,73.84408591365003,411031,Indian
Ganraj Restaurant,18.509120894706307,73.85364690561192,411031,Vegetarian / Vegan
Rolla Costa,18.5246486725534,73.84145819340506,411031,Restaurant
Dunkin',18.523475723661022,73.84122001442189,411031,Donuts
Domino's Pizza,18.51624192519409,73.84230837180795,400027,Pizza
Venky's Xprs,18.521528849674343,73.84106106094669,411031,Burgers
Deccan Gymkhana Club,18.515179330336036,73.84052753448486,411004,Gym / Fitness
Jayashree Paavbhaji,18.504979638515653,73.85429139284874,411031,Indian
Cafe Coffee Day,18.525053674327946,73.84151370702703,411031,Coffee Shop
Horn OK Please,18.5184227804663,73.84168248421332,411031,Indian
Sarovar,18.515991059013285,73.84172211306785,411031,Bar
Rajendra Pavbhaji & Juice Bar,18.519502394847766,73.86765447164639,411011,Snacks
Champion Sports,18.516327890618015,73.84169096663962,411004,Sporting Goods
Shantai Hotel Pune,18.519619386289705,73.87108814195811,411002,B & B
Saffron,18.507729238653617,73.84420581641643,411030,Indian
IMDR Canteen,18.520632569532395,73.83757009650316,411031,Breakfast
LSD Love Sugar Dough,18.53286341493285,73.84205307079452,411031,Desserts
Chaitanya Paratha,18.52414818447426,73.84159814225599,411004,Indian
Cafe Coffee Day,18.522245141196017,73.8409677565661,411031,Coffee Shop
The Ambassador Hotel,18.528144101764916,73.84093251967049,411004,Hotel
Kadhai,18.521520804203057,73.84109133649697,411031,Indian
Amrapali Restaurant - Pure Veg,18.519373652662015,73.84168928567068,411031,Indian
Rumaani,18.522823077409925,73.84098740953503,411031,Restaurant
Shopper's Stop,18.534331628997844,73.85190002869798,411031,Department Store
Raasta Cafe,18.519694368148173,73.87089003366609,411031,Comfort Food
Peppinos Sandwichs And More,18.51853911226199,73.84151513282426,411031,Juice Bar
Olent,18.524552,73.841829,411031,Seafood
Baker's Basket,18.517764707404258,73.84064122145718,411031,Bakery
Corn Club,18.529403188599254,73.84351982880692,411031,Fast Food
Sancheti Hospital,18.52958707659303,73.85293030992315,India,Hospital
Dorabjees,18.56834643694545,73.9074313307174,411014,Department Store
Hira Ki Tapri [H.K.T],18.57392690191187,73.88519646285826,411032,Tea Room
Coffee Jar,18.56964257949076,73.91064593371956,411014,Coffee Shop
AGATYA,18.598166270008893,73.90874419034847,411047,Indian
Reddy's,18.571088485483436,73.91139863285915,411014,Indian
Reddys Vadapav Center,18.57444190979004,73.8924331665039,411032,Breakfast
The Flying Saucer Sky Bar,18.56845748483193,73.90842756155365,411032,Lounge
Pune Airport Arrival,18.57871751151574,73.90935547721332,411032,Airport Service
Subway,18.568392,73.90858,411032,Sandwiches
Jet Airways Checkin Counter,18.5818,73.91826,411032,Airport Service
Four Points by Sheraton,18.590422816619423,73.91711489758647,411032,Hotel
Hotel Arihant,18.62681250466169,73.78245132113317,411033,Snacks
Nevale Misal,18.627925347893264,73.7808082364177,411033,Fast Food
Hotel Rosewood,18.61659187029637,73.76720415562845,411033,Indian
Bay Leaf Bistro,18.624702620497047,73.78407715737934,411033,Indian
Lai bhari kohlapuri restaurant,18.622413686532834,73.7734888766366,411033,Indian
McDonald's,18.608546237306665,73.77045583054789,411043,Fast Food
D-mart,18.614135771252464,73.78473208413817,411033,Mall
McDonald's,18.623646785754225,73.78639811620079,411033,Fast Food
Noorya Hometel,18.62489213217476,73.775672073235,411033,Hotel
Chatrapati Shivaji Maharaj Statue,18.61467845532439,73.76541084199947,411033,Garden
Thergaon Boat Club,18.631031601063498,73.77786673630258,411033,Boat / Ferry
Annapoorna - Veg. Treat,18.632487306924105,73.7849048629632,411033,Indian
PNG jewellery,18.63037562283324,73.77917088330155,411033,Jewelry
P.N. Gadgil and Sons,18.630428779763946,73.77922258939472,411033,Jewelry
Raanmala,18.63606457021204,73.76851914286097,411033,Asian
Amul Ice Cream Parlor,18.604731873296725,73.76967971601805,411033,Ice Cream
De Dakka Misal,18.62877274295833,73.78558659220873,411033,Breakfast
dakshin Davangiri Loni Sponge Dosa,18.629645138954245,73.78701856596406,411033,Snacks
Space Studios,18.628401,73.804368,411034,Dance Studio
Naturals Icecream,18.595114413559774,73.80389799740048,411034,Ice Cream
Mahadev Patiswala,18.62014583042024,73.80362062431706,411034,Breakfast
KFC,18.607925397450717,73.82094503079585,411034,Fast Food
Cafe Coffee Day,18.627324969409205,73.80416634320369,411034,Coffee Shop
Tiranga,18.62831330622216,73.80349711928908,411034,Indian
Croma,18.625418668232076,73.80167393314457,411034,Electronics
Ratna Hotel,18.625636510782794,73.80521272370953,411018,Indian
Shree Ganesh Juice Centre,18.615196,73.803863,411034,Juice Bar
Mauli Tea,18.611609228315523,73.80166751286802,411034,Café
SN'S Xtrim fitness,18.61650282347516,73.80066454410553,411017,Gym / Fitness
Pimpri Market,18.62184955775321,73.80229365951044,411034,Market
Pimpri Chinchwad Bus Station,18.614546190914613,73.81715975417802,411034,Bus Station
Joseph vadapav,18.620290427589232,73.81772266787176,411034,Food Truck
Kasarwadi Railway Station,18.607503476582675,73.8214275191293,411034,Platform
Ginger Hotel Pune,18.627507745349124,73.8042582536056,411034,Hotel
Joshi Vadewale,18.607716227528954,73.82165153117037,411034,Indian
"Cafe Chokolade, Pimpri",18.624834857600533,73.81295442581177,411018,Café
Foodland Pimpri,18.623158239267713,73.81922184858446,411034,Indian
Woodland Original,18.627902497748806,73.80318404812897,411018,Apparel
Qabile-e-Tareef,18.599285574703927,73.79411338659054,411027,North Indian
Cafe durga,18.599353732505147,73.79376870478804,411027,Café
Cinepolis VIP,18.519123836288394,73.93129490307122,411036,Cineplex
