name,latitude,longitude,average_cost_for_two,price_range,aggregate_rating,votes,cuisines,highlights,all_reviews_count,photo_count
South & More,18.5323899000,73.8767475000,300,1,3.4,51,"South Indian, Street Food, Beverages","['Dinner', 'Delivery', 'Breakfast', 'Lunch', 'Cash', 'Takeaway Available', 'Credit Card', 'Debit Card', 'Indoor Seating', 'Digital Payments Accepted', 'Pure Veg']",14,12
Cafe Farmhouse,18.5325624266,73.8766300678,300,1,0,0,"Fast Food, Beverages","['Dinner', 'Cash', 'Breakfast', 'Lunch', 'Takeaway Available', 'Indoor Seating']",0,0
Maharaja,18.5326326802,73.8766384497,600,2,4.1,188,"Maharashtrian, North Indian, Chinese","['Lunch', 'Cash', 'Takeaway Available', 'Debit Card', 'Dinner', 'Delivery', 'Credit Card', 'Lunch Menu', 'Digital Payments Accepted', 'Indoor Seating', 'Air Conditioned']",66,77
Vohuman Cafe,18.5325824537,73.8765905052,250,1,4.6,4603,Street Food,"['Cash', 'Takeaway Available', 'Breakfast', 'Lunch', 'Delivery', 'Credit Card', 'Debit Card', 'Indoor Seating']",1996,1951
Madras Coffee House,18.5326625619,73.8765133917,350,1,4.1,533,"South Indian, Beverages","['Dinner', 'Cash', 'Takeaway Available', 'Debit Card', 'Lunch', 'Delivery', 'Breakfast', 'Indoor Seating', 'All Day Breakfast', 'Digital Payments Accepted', 'Pure Veg']",76,116
Cafe Farm House,18.5325967587,73.8764734939,200,1,0,8,"Fast Food, Street Food, Beverages","['Dinner', 'Delivery', 'Credit Card', 'Lunch', 'Cash', 'Takeaway Available', 'Debit Card', 'Indoor Seating', 'Digital Payments Accepted']",2,1
Kata Kirr,18.5328358116,73.8765593246,150,1,3.4,861,"Street Food, Maharashtrian","['Delivery', 'Breakfast', 'Lunch', 'Cash', 'Takeaway Available', 'Credit Card', 'Debit Card', 'Indoor Seating', 'Digital Payments Accepted', 'Pure Veg']",174,94
Ahling,18.5321895415,73.8765710592,800,2,4.1,947,"Singaporean, Seafood, Chinese","['Lunch', 'Delivery', 'Credit Card', 'No Alcohol Available', 'Dinner', 'Cash', 'Takeaway Available', 'Debit Card', 'Indoor Seating', 'Air Conditioned']",160,131
Baker's Basket,18.5331660982,73.8766803592,400,1,3.8,106,"Bakery, Desserts, Fast Food","['Delivery', 'No Alcohol Available', 'Cash', 'Breakfast', 'Takeaway Available', 'Indoor Seating', 'Air Conditioned', 'Desserts and Bakes']",8,13
Hotel Marymatha,18.5318945389,73.8765314966,350,1,3.2,45,"South Indian, North Indian","['Takeaway Available', 'Breakfast', 'Dinner', 'Cash', 'Credit Card', 'Debit Card', 'Lunch', 'Delivery', 'Indoor Seating', 'Digital Payments Accepted']",11,7
Woodland's Express,18.5318449479,73.8766827062,500,2,3.3,80,"North Indian, South Indian, Chinese, Fast Food, Street Food, Beverages","['No Alcohol Available', 'Dinner', 'Delivery', 'Debit Card', 'Lunch', 'Cash', 'Takeaway Available', 'Credit Card', 'Outdoor Seating', 'Table Reservation Not Required', 'Pure Veg', 'Indoor Seating', 'Air Conditioned']",16,7
Baskin Robbins,18.5333682753,73.8765499368,300,1,2.8,24,"Ice Cream, Desserts, Beverages","['Delivery', 'Cash', 'Takeaway Available', 'Desserts and Bakes', 'Indoor Seating', 'Pure Veg']",5,108
Foodland Restaurant,18.5315989000,73.8771973550,1200,3,3.5,80,"North Indian, Chinese, Continental, Mughlai, Biryani","['Lunch', 'Takeaway Available', 'Debit Card', 'Dinner', 'Cash', 'Delivery', 'Credit Card', 'Free Parking', 'Outdoor Seating', 'Air Conditioned', 'Smoking Area', 'Fullbar', 'Indoor Seating']",33,5
Jalsa Family Garden Restaurant,18.5318767370,73.8759719208,750,2,3.4,5,"North Indian, Chinese, Mughlai, Malwani, Mangalorean","['Dinner', 'Cash', 'Delivery', 'Credit Card', 'Lunch', 'Takeaway Available', 'Debit Card', 'Fullbar', 'Indoor Seating', 'Table Reservation Not Required', 'Smoking Area', 'Outdoor Seating']",2,3
Punjab Da Tashan,18.5315295996,73.8762307540,450,1,3.3,167,"North Indian, Chinese, South Indian","['Delivery', 'Lunch', 'Takeaway Available', 'Dinner', 'Cash', 'Outdoor Seating', 'Digital Payments Accepted', 'Indoor Seating']",22,13
ROYCE' Chocolate,18.5313260000,73.8767860000,1000,3,3.9,0,Desserts,"['Standing Tables', 'Cash', 'Takeaway Available', 'Debit Card', 'Mall Parking', 'Delivery', 'Credit Card', 'Desserts and Bakes']",0,0
Evviva Sky Lounge - Crowne Plaza Pune City Centre,18.5312101182,73.8768278807,2500,4,4.3,744,"Bar Food, Kebab, Mexican","['Dinner', 'Cash', 'Credit Card', 'Debit Card', 'DJ', 'Nightlife', 'Valet Parking Available', 'Live Music', 'Air Conditioned', 'Rooftop', 'Serves Cocktails', 'Dance Floor', 'City View', 'Fullbar', 'Romantic Dining', 'Table booking recommended', 'LGBTQIA Friendly', 'Smoking Area', 'Beer', 'Wine', 'Free Parking']",465,633
Al Mustafa Dum Biryani,18.5315505805,73.8758549094,500,2,3.3,950,"North Indian, Chinese, Maharashtrian, Mughlai","['Dinner', 'Cash', 'Lunch', 'Delivery', 'Indoor Seating', 'Digital Payments Accepted']",10,0
FF - Fast N' Fresh - Crowne Plaza,18.5311799184,73.8768278807,1800,3,3.6,33,Chinese,"['Dinner', 'Cash', 'Debit Card', 'Lunch', 'Credit Card', 'Indoor Seating', 'Air Conditioned']",25,79
Mosaic Pastry Lounge - Crowne Plaza Pune City Centre,18.5311481292,73.8768322393,600,2,3.6,15,"Bakery, Desserts, Fast Food","['Delivery', 'Credit Card', 'Debit Card', 'Dinner', 'Cash', 'Takeaway Available', 'Breakfast', 'Lunch', 'Air Conditioned', 'Indoor Seating', '4/5 Star', 'Desserts and Bakes']",8,83
Mosaic - Crowne Plaza Pune City Centre,18.5311004453,73.8768825307,2500,4,4.1,296,"North Indian, Fast Food","['Lunch', 'Cash', 'Takeaway Available', 'Breakfast', 'Dinner', 'Delivery', 'Credit Card', 'Debit Card', 'Table booking recommended', 'Wheelchair Accessible', 'Buffet', 'Valet Parking Available', 'Outdoor Seating', 'Indoor Seating', 'Air Conditioned', 'Smoking Area', 'Brunch', 'Fullbar']",225,532
Sai Bhojanalay,18.5305771935,73.8752152026,200,1,0,1,Maharashtrian,"['Lunch', 'Cash', 'Dinner', 'Takeaway Available', 'Free Parking', 'Pure Veg', 'Outdoor Seating', 'Digital Payments Accepted']",0,2
Hidden Place - The Hangout,18.5365582543,73.8753509894,1700,3,4.3,1485,"Continental, North Indian, Finger Food, Seafood","['Debit Card', 'Delivery', 'Lunch', 'Cash', 'Credit Card', 'Takeaway Available', 'Dinner', 'Digital Payments Accepted', 'Live Sports Screening', 'Fullbar', 'Air Conditioned', 'Live Music', 'Nightlife', 'Indoor Seating', 'LGBTQIA Friendly']",710,770
Zamu's Place,18.5364660684,73.8757613674,1400,3,4.3,956,"Continental, Parsi, Salad","['Lunch', 'Takeaway Available', 'Debit Card', 'Dinner', 'Cash', 'Delivery', 'Credit Card', 'Fullbar', 'Beer', 'Table Reservation Not Required', 'Smoking Area', 'Outdoor Seating', 'Indoor Seating']",502,551
Maratha Mughlai,18.5367472222,73.8758694444,650,2,3.3,17,North Indian,"['Dinner', 'Delivery', 'Lunch', 'Outdoor Seating', 'Catering Available']",9,4
Chutney's,18.5365773273,73.8759383932,450,1,3.7,1017,"North Indian, South Indian, Chinese, Fast Food, Ice Cream, Beverages","['Cash', 'Debit Card', 'Takeaway Available', 'Breakfast', 'No Alcohol Available', 'Dinner', 'Credit Card', 'Delivery', 'Lunch', 'Indoor Seating', 'Outdoor Seating', 'Pure Veg', 'Desserts and Bakes']",141,64
Mr Wada Pav,18.5366504402,73.8760004193,200,1,3.8,150,Street Food,"['Lunch', 'Standing Tables', 'Delivery', 'Dinner', 'Cash', 'Takeaway Available', 'Breakfast', 'Pure Veg']",29,136
New Chopstick Hub,18.5364247437,73.8760141656,600,2,3.6,37,"North Indian, Chinese, Kerala","['Takeaway Available', 'Dinner', 'Credit Card', 'Delivery', 'Debit Card', 'Cash', 'Lunch', 'Digital Payments Accepted', 'Indoor Seating', 'Free Parking']",3,0
Roshan Snacks Center,18.5364733797,73.8760517165,150,1,3.9,57,South Indian,"['Dinner', 'Cash', 'Takeaway Available', 'Credit Card', 'Lunch', 'Delivery', 'Debit Card', 'Outdoor Seating', 'Digital Payments Accepted', 'Pure Veg']",0,0
Largo Pizzeria,18.5367960301,73.8760429993,700,2,3.7,299,"Pizza, Beverages, Desserts","['Cash', 'Takeaway Available', 'Breakfast', 'Lunch', 'Delivery', 'Credit Card', 'Debit Card', 'Outdoor Seating', 'Digital Payments Accepted']",107,211
Brugge,18.5368379905,73.8761546463,700,2,4.0,134,"Bakery, Desserts, Fast Food","['Lunch', 'Delivery', 'Credit Card', 'Dinner', 'Cash', 'Takeaway Available', 'Debit Card', 'Board Games', 'Air Conditioned', 'Desserts and Bakes', 'Indoor Seating']",75,298
Natural Fresh Ice Cream,18.5368316329,73.8761744276,200,1,3.5,12,"Ice Cream, Desserts","['Takeaway Available', 'Credit Card', 'Cash', 'Delivery', 'Debit Card', 'Outdoor Seating', 'Air Conditioned', 'Disabled Friendly', 'Wifi', 'Desserts and Bakes', 'Indoor Seating', 'Kid Friendly', 'Pure Veg']",3,3
Nandu's Paratha,18.5359774823,73.8760654628,400,1,4.0,2447,North Indian,"['Lunch', 'Delivery', 'Credit Card', 'Dinner', 'Cash', 'Takeaway Available', 'Breakfast', 'Debit Card', 'Outdoor Seating', 'Air Conditioned', 'Pure Veg', 'Digital Payments Accepted', 'Indoor Seating']",307,88
Madhuban,18.5358627263,73.8761308417,500,2,3.7,295,"North Indian, South Indian, Fast Food, Chinese","['No Alcohol Available', 'Dinner', 'Takeaway Available', 'Breakfast', 'Lunch', 'Cash', 'Debit Card', 'Outdoor Seating', 'Indoor Seating', 'Pure Veg']",163,115
Just Baked,18.5357199965,73.8760644570,200,1,3.5,141,"Bakery, Fast Food","['Takeaway Available', 'Breakfast', 'Cash', 'No Alcohol Available', 'Air Conditioned', 'Indoor Seating', 'Desserts and Bakes', 'Free Parking']",72,80
Taste Of Hyderabad,18.5351795931,73.8755179569,700,2,4.0,5006,"Hyderabadi, North Indian, Chinese, Biryani, Seafood, Desserts, Beverages","['Debit Card', 'Lunch', 'Cash', 'Takeaway Available', 'Credit Card', 'Dinner', 'Delivery', 'Outdoor Seating', 'Table booking recommended', 'Indoor Seating', 'Digital Payments Accepted']",448,104
Shree Jodhpur Sweets,18.5352654220,73.8760785386,400,1,0,2,"Mithai, Street Food","['Cash', 'Standing Tables', 'Takeaway Available', 'Digital Payments Accepted', 'Desserts and Bakes', 'Pure Veg']",1,0
Tiffin Story,18.5351050000,73.8755900000,300,1,0,1,North Indian,"['Lunch', 'Takeaway Available', 'Dinner', 'Cash', 'Digital Payments Accepted']",1,0
Fulka,18.5352654220,73.8761492819,500,2,3.2,571,"North Indian, Street Food","['Debit Card', 'Dinner', 'Cash', 'Takeaway Available', 'Credit Card', 'Lunch', 'Delivery', 'Outdoor Seating', 'Indoor Seating', 'Sodexo', 'Table Reservation Not Required']",69,21
Dabbaman.com,18.5352453952,73.8761469349,400,1,3.0,507,North Indian,"['Delivery', 'Dinner', 'Cash', 'Takeaway Available', 'Lunch', 'Indoor Seating']",24,10
Yoko Sizzlers,18.5350174717,73.8753721118,1200,3,3.4,209,"Continental, Fast Food, Chinese","['Lunch', 'Takeaway Available', 'Debit Card', 'No Alcohol Available', 'Dinner', 'Credit Card', 'Free Parking', 'Indoor Seating', 'Table booking recommended', 'Sodexo', 'Air Conditioned']",96,104
Balaji Dosa,18.5349564377,73.8755263388,300,1,3.6,60,South Indian,"['Dinner', 'Cash', 'Takeaway Available', 'Lunch', 'Delivery', 'Indoor Seating']",1,2
Studio Lounge - Hotel Studio Estique,18.5273747047,73.8782923669,1400,3,2.8,21,"American, Italian, North Indian, South Indian","['Dinner', 'Takeaway Available', 'Breakfast', 'Lunch', 'Cash', 'Credit Card', 'Debit Card', 'Valet Parking Available', 'Indoor Seating', 'Air Conditioned', 'Smoking Area', 'Fullbar', 'Table booking recommended', 'Wifi']",12,8
Gajalee,18.5274812010,73.8780392334,1000,3,4.2,647,"Seafood, Mughlai, North Indian","['Dinner', 'Cash', 'Takeaway Available', 'Debit Card', 'Lunch', 'Delivery', 'Credit Card', 'Valet Parking Available', 'Indoor Seating', 'Fullbar', 'Air Conditioned']",306,493
Zanzibar - The Central Park Hotel,18.5273737510,73.8785723224,1500,3,3.2,67,"European, Chinese, North Indian, Mughlai, Mangalorean","['Lunch', 'Cash', 'Debit Card', 'Dinner', 'Credit Card', 'Free Parking', 'Fullbar', 'Live Music', 'Table booking recommended', 'Axis Bank - Dining Delights', 'Wifi', 'Valet Parking Available', 'Gastro Pub', 'Indoor Seating', 'Air Conditioned', 'LGBTQIA Friendly', 'Wheelchair Accessible']",20,10
Time After Time - The Central Park Hotel,18.5274357414,73.8785904273,1600,3,3.8,414,"North Indian, Chinese, Thai, European, Italian","['Delivery', 'Credit Card', 'Lunch', 'Takeaway Available', 'Breakfast', 'Debit Card', 'Dinner', 'Cash', 'Buffet', 'Fullbar', 'Table booking recommended', 'Axis Bank - Dining Delights', 'Smoking Area', 'Wifi', 'Indoor Seating', 'Air Conditioned']",255,123
Slounge - Lemon Tree Premier,18.5280594587,73.8763960451,1200,3,3.7,24,"Finger Food, North Indian, Continental, Chinese, Thai","['Dinner', 'Credit Card', 'Lunch', 'Cash', 'Debit Card', 'Fullbar', 'Indoor Seating', 'LGBTQIA Friendly', 'Smoking Area', 'Outdoor Seating', 'Air Conditioned', 'Wheelchair Accessible']",12,35
Republic of Noodles - Lemon Tree Premier,18.5280200393,73.8763799518,1800,3,3.9,42,"Chinese, Thai, Mongolian","['Dinner', 'Cash', 'Credit Card', 'Lunch', 'Takeaway Available', 'Debit Card', 'Craft Beer', 'Indoor Seating', 'Fullbar', 'Air Conditioned']",26,94
Citrus Cafe - Lemon Tree Premier,18.5280867979,73.8763866574,1600,3,3.9,91,"North Indian, South Indian, Italian, Asian, Continental","['Dinner', 'Takeaway Available', 'Breakfast', 'Debit Card', 'Lunch', 'Cash', 'Credit Card', 'Fullbar', 'Indoor Seating', 'Air Conditioned', 'Smoking Area', 'Outdoor Seating', 'Free Wifi', 'Wheelchair Accessible', 'Buffet']",61,159
Chavda Fast Food,18.5278143591,73.8761586696,200,1,0,1,Fast Food,"['Lunch', 'Takeaway Available', 'Delivery', 'Dinner', 'Cash', 'Breakfast', 'Free Parking', 'Digital Payments Accepted', 'Indoor Seating']",0,0
Coronation Restaurant,18.5279125897,73.8760393113,250,1,3.5,5,"North Indian, Street Food","['Breakfast', 'Lunch', 'Cash', 'Dinner', 'Takeaway Available', 'Free Parking', 'Indoor Seating']",3,5
Sagar,18.5279790305,73.8758780435,550,2,3.8,195,"North Indian, South Indian, Chinese, Fast Food, Maharashtrian, Beverages","['Lunch', 'Cash', 'Takeaway Available', 'Credit Card', 'Debit Card', 'Dinner', 'Delivery', 'Breakfast', 'Sodexo', 'Indoor Seating', 'Pure Veg']",71,89
Status Family Rest-O-Bar,18.5257705768,73.8764228672,1200,3,4.1,535,"North Indian, Mughlai, Italian, Chinese","['Dinner', 'Delivery', 'Credit Card', 'Lunch', 'Cash', 'Takeaway Available', 'Debit Card', 'Live Sports Screening', 'Fullbar', 'Indoor Seating', 'Air Conditioned', 'Smoking Area', 'Valet Parking Available', 'Live Music', 'Table booking recommended', 'Wifi']",149,155
Shiv Kailash,18.5279481943,73.8756205514,200,1,4.7,679,"Ice Cream, Beverages","['Cash', 'Debit Card', 'Takeaway Available', 'Credit Card', 'Outdoor Seating', 'Pure Veg', 'Indoor Seating', 'Desserts and Bakes']",305,244
Madhura Restaurant,18.5278938337,73.8755323738,300,1,3.2,10,"South Indian, North Indian, Street Food","['Cash', 'Takeaway Available', 'Breakfast', 'Dinner', 'Lunch', 'Indoor Seating', 'Pure Veg']",1,6
Nirman Family Restaurant & Bar,18.5253964052,73.8765479252,850,2,3.1,9,"North Indian, Chinese","['Credit Card', 'Dinner', 'Cash', 'Takeaway Available', 'Debit Card', 'Lunch', 'Table Reservation Not Required', 'Smoking Area', 'Fullbar', 'Indoor Seating', 'Outdoor Seating', 'Air Conditioned']",4,4
Ghee Waala,18.5254075318,73.8764915988,250,1,0,9,North Indian,"['Dinner', 'Delivery', 'Breakfast', 'Lunch', 'Cash', 'Takeaway Available', 'Indoor Seating', 'Pure Veg', 'Serves Jain Food', 'Free Parking']",1,0
Hotel Neelam,18.5278566396,73.8753734529,700,2,2.7,19,"North Indian, Hyderabadi, Seafood, Chinese","['Cash', 'Takeaway Available', 'Credit Card', 'Debit Card', 'Dinner', 'Lunch', 'Delivery', 'Indoor Seating']",4,5
Hotel Preetam,18.5279017812,73.8753768057,600,2,3.6,21,"North Indian, Chinese, Malwani, Biryani","['Delivery', 'Dinner', 'Takeaway Available', 'Debit Card', 'Lunch', 'Cash', 'Credit Card', 'Indoor Seating', 'Fullbar']",3,2
Saffron & Spice,18.5247008318,73.8782269880,200,1,0,0,"Fast Food, North Indian","['Lunch', 'Standing Tables', 'Delivery', 'Dinner', 'Cash', 'Takeaway Available']",0,0
Hindustan Tea House,18.5279679040,73.8750569522,300,1,0,3,"North Indian, Chinese, Maharashtrian","['Dinner', 'Takeaway Available', 'Breakfast', 'Lunch', 'Cash', 'Credit Card', 'Debit Card', 'Indoor Seating', 'Free Parking']",2,0
Amit Da Dhaba,18.5245008698,73.8768241927,700,2,3.7,10,"North Indian, Mughlai","['Lunch', 'Takeaway Available', 'Debit Card', 'Dinner', 'Cash', 'Credit Card', 'Outdoor Seating', 'Digital Payments Accepted', 'Indoor Seating']",7,0
Zeera - Conrad Pune,18.5347062618,73.8825788721,3000,4,4.1,163,North Indian,"['Dinner', 'Delivery', 'Credit Card', 'Cash', 'Takeaway Available', 'Debit Card', 'Valet Parking Available', 'Wine', 'Indoor Seating', 'Air Conditioned', 'Luxury Dining', 'Fullbar', 'Beer', 'Serves Cocktails', 'Table booking recommended', 'Wifi']",87,213
Kabana - Conrad Pune,18.5346836919,73.8825815544,3000,4,4.0,95,"Continental, Italian","['Credit Card', 'Dinner', 'Cash', 'Debit Card', 'Free Parking', 'Outdoor Seating', 'Beer', 'Live Music', 'Serves Cocktails', 'Table booking recommended', 'LGBTQIA Friendly', 'Smoking Area', 'Nightlife', 'Fullbar', 'Wine', 'Poolside', 'Indoor Seating', 'Air Conditioned', 'Wifi']",39,128
Masu - Conrad Pune,18.5347186593,73.8825540617,3000,4,3.8,79,Asian,"['Cash', 'Credit Card', 'Dinner', 'Debit Card', 'Beer', 'Serves Cocktails', 'Air Conditioned', 'Nightlife', 'Outdoor Seating', 'Wine', 'Indoor Seating', 'LGBTQIA Friendly', 'Wifi', 'Fullbar']",37,27
Coriander Kitchen - Conrad Pune,18.5347186593,73.8825540617,3200,4,4.4,551,"North Indian, Asian, Mediterranean","['Lunch', 'Delivery', 'Breakfast', 'Dinner', 'Cash', 'Takeaway Available', 'Credit Card', 'Debit Card', 'Free Parking', 'Fullbar', 'Indoor Seating', 'Table booking recommended', 'Air Conditioned', 'Disabled Friendly', 'Luxury Dining', 'Wheelchair Accessible', 'Gluten Free Options', 'Vegan Options', 'Buffet', 'Valet Parking Available', 'Outdoor Seating', 'Romantic Dining', 'Restricted Entry', 'Kid Friendly', 'Smoking Area', 'Wifi', 'Serves Jain Food', 'Brunch']",288,1148
Koji - Conrad Pune,18.5347189772,73.8825533912,3000,4,4.1,210,"Chinese, Japanese, Thai","['Lunch', 'Delivery', 'Credit Card', 'Debit Card', 'Dinner', 'Cash', 'Takeaway Available', 'Fullbar', 'Air Conditioned', 'Luxury Dining', 'Indoor Seating', 'Wifi', 'Brunch']",100,275
Oakleaf at Oakwood Residence,18.5353661914,73.8845627010,2000,4,3.3,34,"Italian, Asian, Continental, North Indian","['Breakfast', 'Debit Card', 'Dinner', 'Cash', 'Takeaway Available', 'Credit Card', 'Lunch', 'Wheelchair Accessible', 'Serves Jain Food', 'Lunch Menu', 'Pool Table', 'Fullbar', 'Indoor Seating', 'Table booking recommended', 'Air Conditioned', 'Smoking Area', 'Buffet', 'Desserts and Bakes', 'Free Parking', 'Valet Parking Available', 'Outdoor Seating', 'Paid Wifi', 'Table booking for Groups', 'Kid Friendly']",9,71
The Fries Cafe,18.5347809649,73.8806557283,300,1,0,2,"Fast Food, Beverages","['Dinner', 'Takeaway Available', 'Lunch', 'Cash', 'Indoor Seating']",1,1
Yewale Amruttulya,18.5350263725,73.8806322590,100,1,0,2,Tea,"['Delivery', 'Cash', 'Takeaway Available', 'Outdoor Seating', 'Digital Payments Accepted']",2,0
Rolls Mania,18.5349713783,73.8806000724,300,1,3.8,2664,"Rolls, Fast Food, Beverages","['Debit Card', 'Dinner', 'Cash', 'Takeaway Available', 'Credit Card', 'Lunch', 'Delivery', 'Outdoor Seating', 'Indoor Seating', 'Sodexo', 'Ticket Restaurant']",52,51
Cafe Creamy Nuts,18.5355194117,73.8804807141,350,1,0,1,"Fast Food, Beverages","['Dinner', 'Cash', 'Breakfast', 'Lunch', 'Takeaway Available', 'Credit Card', 'Debit Card', 'Indoor Seating', 'Pure Veg', 'Desserts and Bakes', 'Digital Payments Accepted']",1,5
Cafe Creme,18.5354685502,73.8804438338,250,1,3.4,6,"Beverages, Ice Cream, Fast Food","['Dinner', 'Cash', 'Lunch', 'Takeaway Available', 'Breakfast', 'Indoor Seating', 'Pure Veg', 'Desserts and Bakes', 'Digital Payments Accepted']",3,9
Gopu Kohapuri,18.5350454456,73.8803932071,200,1,0,0,Street Food,"['Dinner', 'Delivery', 'Lunch', 'Cash', 'Takeaway Available', 'Indoor Seating']",0,0
Cafe Little Eggs,18.5353042039,73.8803968951,300,1,3.3,9,"Fast Food, Beverages","['Dinner', 'Cash', 'Takeaway Available', 'Lunch', 'Delivery', 'Breakfast', 'Indoor Seating', 'Digital Payments Accepted']",7,9
Cafe Diamond King,18.5353433037,73.8803982362,350,1,3.4,28,"Fast Food, Sandwich, Beverages, Ice Cream","['Debit Card', 'Dinner', 'Delivery', 'Credit Card', 'Breakfast', 'Lunch', 'Cash', 'Takeaway Available', 'Indoor Seating', 'Digital Payments Accepted', 'Desserts and Bakes']",13,9
Ice Cream Delight,18.5354650000,73.8803080000,250,1,0,0,"Desserts, Fast Food, Beverages","['Dinner', 'Cash', 'Takeaway Available', 'Breakfast', 'Lunch', 'Delivery', 'Indoor Seating', 'Digital Payments Accepted', 'Pure Veg', 'Desserts and Bakes']",0,0
Fantasy Juice Bar & Snacks,18.5350765983,73.8802493736,250,1,3.9,138,"Beverages, Fast Food","['Cash', 'Takeaway Available', 'Dinner', 'Delivery', 'Lunch', 'Indoor Seating', 'Pure Veg']",44,57
SK Snacks Centre,18.5348464494,73.8802279159,150,1,0,3,Street Food,"['Dinner', 'Takeaway Available', 'Breakfast', 'Lunch', 'Cash', 'Indoor Seating', 'Pure Veg']",0,1
XOXO Desserts,18.5371758986,73.8812867180,250,1,4.1,46,"Bakery, Desserts","['No Seating Available', 'Delivery', 'Takeaway Available', 'Cash', 'Desserts and Bakes']",35,57
Tangasseri,18.5326580000,73.8845250000,600,2,4.0,263,"North Indian, Goan, Sandwich, Kerala","['No Seating Available', 'Cash', 'Takeaway Available', 'Debit Card', 'Lunch', 'Delivery', 'Credit Card']",143,61
B-Kwik,18.5372264417,73.8811774179,400,1,3.2,126,"Chinese, North Indian, Mughlai","['Cash', 'Debit Card', 'Dinner', 'Credit Card', 'Lunch', 'Delivery']",2,8
Al Burak Snacks & Caterers,18.5350650000,73.8762560000,300,1,0,4,"Pizza, Sandwich, Fast Food","['Lunch', 'Cash', 'Dinner', 'Delivery']",1,0
WS Bakers,18.5349958555,73.8758254051,300,1,4.0,131,Bakery,"['No Seating Available', 'Delivery', 'Cash', 'Takeaway Available', 'Air Conditioned', 'Pure Veg', 'Digital Payments Accepted', 'Desserts and Bakes']",8,241
Roof Top Bar - Sheraton Grand,18.5300297801,73.8713152707,2900,4,3.3,21,"North Indian, Seafood, Kebab","['Dinner', 'Credit Card', 'Lunch', 'Cash', 'Debit Card', 'Air Conditioned', 'Valet Parking Available', 'Outdoor Seating', '4/5 Star', 'Fullbar']",4,7
The Lobby @ Sheraton Cafe,18.5300552116,73.8713099062,800,2,4.0,84,"Cafe, Fast Food","['Lunch', 'Cash', 'Debit Card', 'Credit Card', 'Indoor Seating', 'Valet Parking Available', 'Air Conditioned', 'Desserts and Bakes']",45,112
Chingari - Sheraton Grand,18.5300450390,73.8713021949,2500,4,4.2,559,"North Indian, Mughlai","['Debit Card', 'Dinner', 'Cash', 'Credit Card', 'Valet Parking Available', 'Outdoor Seating', 'Romantic Dining', '4/5 Star', 'Air Conditioned', 'Luxury Dining', 'Fullbar', 'Poolside', 'Table booking recommended']",321,254
Feast - Sheraton Grand,18.5299172454,73.8715251535,3000,4,4.5,577,"North Indian, Asian, European","['Lunch', 'Credit Card', 'Debit Card', 'Dinner', 'Cash', 'Breakfast', 'Live Sports Screening', 'Fullbar', '4/5 Star', 'Air Conditioned', 'Luxury Dining', 'Brunch', 'Beer', 'Valet Parking Available', 'Indoor Seating', 'Table booking recommended', 'Wifi', 'Buffet', 'Desserts and Bakes']",372,1396
Domino's Pizza,18.5286841274,73.8736608624,400,1,4.0,262,"Pizza, Italian","['Lunch', 'Delivery', 'Credit Card', 'Debit Card', 'Dinner', 'Cash', 'Takeaway Available', 'Breakfast', 'Outdoor Seating', 'Kid Friendly', 'Indoor Seating']",29,38
Subway,18.5287569258,73.8738754392,500,2,3.2,50,"Fast Food, Healthy Food, Sandwich, Salad","['Lunch', 'Cash', 'Takeaway Available', 'Breakfast', 'Dinner', 'Delivery', 'Credit Card', 'Debit Card', 'Outdoor Seating', 'Indoor Seating', 'Digital Payments Accepted']",11,46
Pune StrEAT,18.5287206856,73.8738958910,250,1,0,2,"South Indian, Chinese, Maharashtrian","['Dinner', 'Cash', 'Debit Card', 'Delivery', 'Breakfast', 'Lunch', 'Credit Card', 'Takeaway Available', 'Indoor Seating', 'Outdoor Seating', 'Air Conditioned']",0,6
Rail Dhaba Pune Street,18.5287194140,73.8738968968,200,1,3.5,61,"North Indian, South Indian, Chinese","['Dinner', 'Breakfast', 'Cash', 'Delivery', 'Lunch', 'Takeaway Available', 'Indoor Seating']",0,0
Samrat Queen,18.5283407983,73.8737936318,700,2,3.6,12,"North Indian, Chinese","['Takeaway Available', 'Cash', 'Debit Card', 'Dinner', 'Lunch', 'Credit Card', 'Indoor Seating', 'Fullbar', 'Air Conditioned', 'Smoking Area', 'Outdoor Seating', 'Table booking recommended']",10,15
Madhav Veg Non-veg,18.5277132673,73.8733101636,500,2,3.9,132,"North Indian, Chinese, Malwani","['Takeaway Available', 'Dinner', 'Cash', 'Delivery', 'Lunch', 'Debit Card', 'Credit Card', 'Digital Payments Accepted', 'Indoor Seating']",16,15
Shiv Shankar Wadewale,18.5304993096,73.8746314868,150,1,3.5,47,South Indian,"['Dinner', 'Delivery', 'Lunch', 'Cash', 'Takeaway Available', 'Indoor Seating']",0,2
Vandan Restaurant,18.5273801090,73.8732115924,500,2,3.0,261,"South Indian, North Indian, Chinese, Beverages","['Cash', 'Breakfast', 'No Alcohol Available', 'Delivery', 'Takeaway Available', 'Lunch', 'Dinner', 'Indoor Seating', 'Pure Veg']",5,2
Rice & Roti,18.5311414534,73.8745379448,600,2,2.9,10,"North Indian, Chinese, Continental","['Lunch', 'Cash', 'Breakfast', 'No Alcohol Available', 'Dinner', 'Credit Card', 'Debit Card', 'Indoor Seating', 'Air Conditioned', 'Pure Veg', 'Table Reservation Not Required', 'Wifi']",0,4
The Terrace Bistro,18.5313973566,73.8744819537,1200,3,3.7,13,"Italian, Continental, Thai","['Lunch', 'Cash', 'Credit Card', 'Delivery', 'Dinner', 'Debit Card', 'Table booking recommended', 'Outdoor Seating', 'Indoor Seating', 'Air Conditioned', 'Smoking Area', 'Fullbar']",5,6
Panchvati by Panchratna,18.5313900451,73.8744863123,1200,3,3.6,64,"North Indian, Mughlai, Goan","['Credit Card', 'Lunch', 'Cash', 'Takeaway Available', 'Debit Card', 'Dinner', 'Smoking Area', 'Free Parking', 'Outdoor Seating', 'Table reservation required', 'Kid Friendly', 'Fullbar', 'Indoor Seating', 'Air Conditioned']",28,39
Shree Krishna Palace,18.5272926867,73.8733446971,600,2,3.9,241,"North Indian, South Indian, Chinese, Beverages, Desserts","['Dinner', 'Delivery', 'Lunch', 'Cash', 'Takeaway Available', 'Breakfast', 'Indoor Seating', 'Pure Veg']",39,29
New Metro Restaurant,18.5281770810,73.8743035868,300,1,3.3,7,"North Indian, Maharashtrian","['Dinner', 'Delivery', 'Breakfast', 'Lunch', 'Cash', 'Takeaway Available', 'Indoor Seating']",3,2
The Egg Corner,18.5273047668,73.8736209646,200,1,3.9,23,Fast Food,"['Dinner', 'Standing Tables', 'Delivery', 'Cash', 'Takeaway Available', 'Digital Payments Accepted']",12,6
Viceroy Bakery,18.5281100045,73.8745771721,200,1,3.3,29,Bakery,"['Delivery', 'Breakfast', 'Cash', 'Takeaway Available', 'Indoor Seating']",0,0
Prince Family Restaurant,18.5281017392,73.8746281341,400,1,0,1,"Chinese, North Indian","['Cash', 'Takeaway Available', 'Lunch', 'Delivery', 'Breakfast', 'Dinner', 'Indoor Seating', 'Digital Payments Accepted', 'Outdoor Seating']",0,1
Cafe Buddy's Espresso,18.5231192502,73.8779738545,500,2,3.6,30,"Cafe, Fast Food, Beverages","['Lunch', 'Cash', 'Delivery', 'Credit Card', 'Dinner', 'Takeaway Available', 'Debit Card', 'Outdoor Seating', 'Table booking recommended', 'Indoor Seating', 'Air Conditioned', 'Wifi']",10,22
The Ladies Club,18.5215554569,73.8798721880,1400,3,3.0,32,"Chinese, Fast Food, North Indian, Mughlai","['Lunch', 'Cash', 'Dinner', 'Takeaway Available', 'Fullbar', 'Digital Payments Accepted', 'Indoor Seating', 'Table Reservation Not Required']",13,10
Blue Nile,18.5218415758,73.8774504885,800,2,4.1,4548,"North Indian, Chinese, Mughlai, Malwani, Desserts","['Dinner', 'Cash', 'Takeaway Available', 'Debit Card', 'Lunch', 'Delivery', 'Credit Card', 'Indoor Seating', 'Air Conditioned']",1455,939
Ritz Restaurant,18.5233363807,73.8767722249,550,2,3.4,33,"North Indian, South Indian, Fast Food","['Credit Card', 'Breakfast', 'Lunch', 'Debit Card', 'Takeaway Available', 'Dinner', 'Cash', 'Outdoor Seating', 'Pure Veg', 'Indoor Seating', 'Air Conditioned']",23,9
Pokket Cafe,18.5216600493,73.8770283759,300,1,2.8,12,"Fast Food, Chinese, Beverages, Desserts","['Dinner', 'Cash', 'Credit Card', 'Debit Card', 'Lunch', 'Takeaway Available', 'Breakfast', 'Outdoor Seating', 'Digital Payments Accepted', 'Free Parking']",5,22
Caneyard,18.5215627688,73.8770950958,150,1,3.7,280,"Juices, Beverages","['Cash', 'Takeaway Available', 'Delivery', 'Outdoor Seating', 'Digital Payments Accepted']",12,4
Fresh Fruit Juices & Milkshakes,18.5215595897,73.8770927489,100,1,3.1,122,"Beverages, Juices","['Cash', 'Delivery', 'Takeaway Available', 'Outdoor Seating']",3,3
Dolchii,18.5213259255,73.8771705329,1300,3,3.5,250,"North Indian, Chinese, Continental","['Takeaway Available', 'Credit Card', 'Lunch', 'Dinner', 'Cash', 'Debit Card', 'Digital Payments Accepted', 'Kid Friendly', 'Valet Parking Available', 'Air Conditioned', 'Pure Veg', 'Indoor Seating']",155,166
Taipan's Dhaba,18.5216454254,73.8768952712,500,2,3.7,36,"North Indian, Fast Food, Chinese","['Dinner', 'Delivery', 'Lunch', 'Cash', 'Takeaway Available', 'Outdoor Seating']",1,3
Sahare Dining Hall,18.5232371938,73.8764879107,400,1,4.1,505,North Indian,"['Lunch', 'Cash', 'Takeaway Available', 'Credit Card', 'Dinner', 'Delivery', 'Debit Card', 'Free Parking', 'Indoor Seating', 'Pure Veg']",87,101
Sukh Sagar,18.5217188627,73.8767628372,700,2,3.9,308,"Street Food, Fast Food, North Indian, Chinese, Malwani","['Cash', 'Credit Card', 'Lunch', 'Delivery', 'Dinner', 'Takeaway Available', 'Debit Card', 'Outdoor Seating', 'Digital Payments Accepted', 'Pure Veg']",31,34
Cake Cart,18.5229504413,73.8764107972,250,1,4.2,434,Bakery,"['Cash', 'Debit Card', 'Takeaway Available', 'Credit Card', 'Delivery', 'Air Conditioned', 'Desserts and Bakes', 'Indoor Seating', 'Pure Veg']",36,78
Vikram Resto-Bar,18.5225578249,73.8764188439,700,2,3.6,22,North Indian,"['Credit Card', 'Debit Card', 'Takeaway Available', 'Delivery', 'Lunch', 'Dinner', 'Cash', 'Indoor Seating', 'Digital Payments Accepted', 'Smoking Area', 'Outdoor Seating', 'Fullbar']",10,11
The Fish House,18.5218240908,73.8766314089,600,2,0,0,"Malwani, Chinese","['Dinner', 'Cash', 'Takeaway Available', 'Lunch', 'Delivery', 'Outdoor Seating', 'Digital Payments Accepted']",0,1
Uncle Kitchen,18.5218097849,73.8766032457,550,2,3.9,184,"North Indian, Chinese, Fast Food, Maharashtrian, Beverages","['Dinner', 'Delivery', 'Lunch', 'Cash', 'Takeaway Available', 'Outdoor Seating', 'Pure Veg', 'Free Parking']",23,28
Ravi Fast Food,18.5218174147,73.8765948638,700,2,3.9,42,"North Indian, Chinese, Beverages","['Cash', 'Lunch', 'Dinner', 'Mall Parking', 'Delivery', 'Takeaway Available', 'Outdoor Seating', 'Free Parking']",2,7
Baba's Corner,18.5218202759,73.8765817881,600,2,3.1,162,"Chinese, North Indian, Maharashtrian, Beverages","['Dinner', 'Cash', 'Takeaway Available', 'Lunch', 'Mall Parking', 'Delivery', 'Indoor Seating']",10,33
Sai,18.5218174147,73.8765824586,700,2,3.5,85,"North Indian, Chinese, Street Food","['Cash', 'Takeaway Available', 'Dinner', 'Mall Parking', 'Delivery', 'Lunch', 'Outdoor Seating']",7,9
Kapila Kathi Kebab,18.5348156145,73.8763145730,400,1,4.3,706,Rolls,"['Dinner', 'Takeaway Available', 'Lunch', 'Cash', 'Outdoor Seating']",360,104
Hyderabad Tandoori,18.5349666100,73.8763551414,600,2,3.5,646,"Hyderabadi, Chinese, North Indian","['Lunch', 'Delivery', 'Credit Card', 'Dinner', 'Cash', 'Takeaway Available', 'Debit Card', 'Outdoor Seating', 'Table Reservation Not Required', 'Indoor Seating']",63,24
Caramella's,18.5349977628,73.8762934506,300,1,3.6,20,"Bakery, Desserts, Fast Food","['Delivery', 'Credit Card', 'Cash', 'Takeaway Available', 'Debit Card', 'No Seating Available', 'Digital Payments Accepted', 'Desserts and Bakes']",7,27
Cafe Boulevard,18.5346754269,73.8761569932,900,2,3.1,11,"North Indian, Italian, Continental","['Dinner', 'Takeaway Available', 'Breakfast', 'Cash', 'Lunch', 'Credit Card', 'Debit Card', 'Fullbar', 'Indoor Seating', 'Table Reservation Not Required', 'Outdoor Seating', 'Air Conditioned', 'Smoking Area']",6,6
Hungryish The Kitchen,18.5350180000,73.8767210000,300,1,0,2,"Italian, Fast Food","['No Seating Available', 'Dinner', 'Cash', 'Takeaway Available', 'Debit Card', 'Lunch', 'Delivery', 'Credit Card', 'Digital Payments Accepted']",2,6
Kapila Garden Restaurant & Bar,18.5340323426,73.8764369488,1600,3,3.0,11,"North Indian, Malwani, Chinese","['Debit Card', 'Lunch', 'Cash', 'Takeaway Available', 'Dinner', 'Credit Card', 'Live Entertainment', 'Indoor Seating', 'Digital Payments Accepted', 'Fullbar', 'Rooftop', 'Air Conditioned', 'Smoking Area']",5,9
Paji's Amritsari Kulcha,18.5342940000,73.8756130000,350,1,3.9,22,North Indian,"['No Seating Available', 'Delivery', 'Breakfast', 'Lunch', 'Cash', 'Takeaway Available']",3,4
Ribbons & Balloons,18.5349675637,73.8773170486,350,1,3.1,29,"Bakery, Desserts","['Cash', 'Debit Card', 'Delivery', 'No Alcohol Available', 'Credit Card', 'Takeaway Available', 'Indoor Seating', 'Pure Veg', 'Outdoor Seating', 'Air Conditioned', 'Desserts and Bakes']",10,49
Amul Ice Cream Parlor,18.5349891799,73.8773602992,300,1,3.4,20,"Ice Cream, Desserts","['Cash', 'Debit Card', 'No Alcohol Available', 'Takeaway Available', 'Credit Card', 'Indoor Seating', 'Pure Veg', 'Air Conditioned', 'Desserts and Bakes', 'Digital Payments Accepted']",4,22
La Bouchee d'Or,18.5388498527,73.8767169043,600,2,4.1,243,"Cafe, Bakery","['Breakfast', 'Delivery', 'Credit Card', 'Lunch', 'Cash', 'Takeaway Available', 'Debit Card', 'Indoor Seating', 'Air Conditioned', 'Desserts and Bakes', 'Outdoor Seating']",110,298
Asia Kitchen By Mainland China,18.5388298264,73.8753650710,1200,3,4.3,866,"Beverages, Asian, Chinese, Sushi","['Lunch', 'Takeaway Available', 'Debit Card', 'Dinner', 'Cash', 'Delivery', 'Credit Card', 'Fullbar', 'Table booking recommended', 'Air Conditioned', 'Smoking Area', 'Indoor Seating', 'Digital Payments Accepted']",338,929
The Bacckyard Kitchen & Bar,18.5393158613,73.8751441240,1200,3,3.6,289,"North Indian, Chinese, Finger Food, Bar Food, Mughlai, Salad","['Lunch', 'Takeaway Available', 'Debit Card', 'Dinner', 'Cash', 'Delivery', 'Credit Card', 'Live Sports Screening', 'Valet Parking Available', 'Outdoor Seating', 'Table booking recommended', 'Air Conditioned', 'LGBTQIA Friendly', 'Smoking Area', 'Nightlife', 'Fullbar', 'Indoor Seating', 'Digital Payments Accepted', 'Axis Bank - Dining Delights', 'Group Meal']",97,131
Fantasie Fine Chocolates,18.5393184044,73.8795677572,400,1,0,13,Desserts,"['No Seating Available', 'Delivery', 'Credit Card', 'Cash', 'Takeaway Available', 'Debit Card', 'Desserts and Bakes']",4,18
The Steam Room,18.5380440299,73.8795509934,600,2,3.7,25,Italian,"['Dinner', 'Cash', 'Takeaway Available', 'Credit Card', 'Lunch', 'Delivery', 'Debit Card', 'Outdoor Seating', 'Digital Payments Accepted', 'Pure Veg']",12,1
Suonmoi,18.5375395543,73.8797783107,1200,3,4.2,353,"Chinese, Thai","['Takeaway Available', 'Debit Card', 'Dinner', 'Cash', 'Credit Card', 'Lunch', 'Delivery', 'Indoor Seating', 'Air Conditioned']",166,128
Cream Craver,18.5211062491,73.8770572096,600,2,4.2,1413,"North Indian, Street Food, Chinese, Beverages","['Lunch', 'Cash', 'Takeaway Available', 'Credit Card', 'Dinner', 'Delivery', 'Debit Card', 'Outdoor Seating', 'Indoor Seating', 'Pure Veg']",742,945
The Relax,18.5218091491,73.8765418902,400,1,3.1,7,Chinese,"['Cash', 'Dinner', 'Delivery', 'Takeaway Available', 'Lunch', 'Outdoor Seating', 'Digital Payments Accepted', 'Indoor Seating']",2,17
Tangerine,18.5201471087,73.8766870648,1000,3,3.5,91,"North Indian, Asian, Continental, Fast Food","['Cash', 'Debit Card', 'Breakfast', 'Dinner', 'Credit Card', 'Takeaway Available', 'Lunch', 'Indoor Seating', 'Wheelchair Accessible', 'Fullbar', 'Valet Parking Available', 'Air Conditioned', 'Buffet']",57,177
Chequered Flag,18.5201464729,73.8766535372,1700,3,3.4,41,"Finger Food, North Indian, Chinese, Continental","['Credit Card', 'Dinner', 'Cash', 'Debit Card', 'Free Parking', 'Fullbar', 'Indoor Seating', 'Air Conditioned', 'Live Sports Screening', 'Outdoor Seating']",19,82
Little Italy,18.5396242019,73.8834059983,2000,4,4.2,2002,"Italian, Mexican, Pizza, Salad, Beverages","['Lunch', 'Cash', 'Delivery', 'Credit Card', 'Dinner', 'Takeaway Available', 'Debit Card', 'Valet Parking Available', 'Outdoor Seating', 'Table booking recommended', 'Air Conditioned', 'Buffet', 'Fullbar', 'Indoor Seating', 'Digital Payments Accepted', 'Wifi', 'Brunch']",471,623
Tutto Bene,18.5395965467,73.8833966106,400,1,0,6,"Italian, Beverages, Desserts","['No Seating Available', 'Dinner', 'Delivery', 'Lunch', 'Cash']",3,71
Akss - India Reimagined,18.5395816065,73.8833922520,1000,3,3.8,89,"Modern Indian, North Indian","['Lunch', 'Delivery', 'Credit Card', 'Dinner', 'Cash', 'Takeaway Available', 'Debit Card', 'Valet Parking Available', 'Air Conditioned', 'Indoor Seating']",58,115
Piazza,18.5395806528,73.8833932579,200,1,0,1,"Pizza, Fast Food","['Lunch', 'Cash', 'Dinner', 'Delivery']",0,11
Little Indian,18.5397335515,73.8834425434,300,1,0,18,"North Indian, Fast Food","['No Seating Available', 'Dinner', 'Delivery', 'Lunch', 'Cash']",0,2
Copper Chocs,18.5396102154,73.8832155615,350,1,3.5,20,"Bakery, Desserts, Fast Food","['Cash', 'Takeaway Available', 'Debit Card', 'Delivery', 'Credit Card', 'Outdoor Seating', 'Digital Payments Accepted', 'Indoor Seating', 'Air Conditioned', 'Desserts and Bakes']",10,36
Tasty Corner,18.5401026056,73.8829801977,350,1,3.8,646,Fast Food,"['Dinner', 'Cash', 'Takeaway Available', 'Lunch', 'Delivery', 'Outdoor Seating', 'Indoor Seating', 'Sodexo', 'Digital Payments Accepted']",40,21
Nutan Fast Food Center,18.5409513317,73.8834086806,350,1,0,3,"South Indian, Street Food, North Indian, Chinese","['Lunch', 'Takeaway Available', 'Breakfast', 'Dinner', 'Cash', 'Outdoor Seating', 'Digital Payments Accepted', 'Indoor Seating', 'Pure Veg']",2,11
Hotel Sadanand,18.5410129993,73.8835102692,600,2,3.1,13,"North Indian, South Indian, Chinese, Biryani","['Breakfast', 'Lunch', 'Cash', 'Credit Card', 'Debit Card', 'Dinner', 'Takeaway Available', 'Outdoor Seating', 'Air Conditioned', 'Pure Veg', 'Indoor Seating', 'Table Reservation Not Required']",4,11
Roopalli,18.5410505084,73.8835910708,550,2,3.3,108,"North Indian, Chinese, Mughlai, Seafood","['Lunch', 'Delivery', 'Credit Card', 'Dinner', 'Cash', 'Takeaway Available', 'Debit Card', 'Outdoor Seating', 'Digital Payments Accepted', 'Indoor Seating']",15,10
CAFE PETER,18.5409955162,73.8849335164,700,2,3.6,363,"Cafe, Japanese, Korean, Continental, Desserts, Coffee","['No Alcohol Available', 'Dinner', 'Delivery', 'Credit Card', 'Debit Card', 'Lunch', 'Cash', 'Takeaway Available', 'Breakfast', 'Live Music', 'Table Reservation Not Required', 'Indoor Seating', 'Free Wifi', 'Desserts and Bakes']",89,265
The New Cake Factory,18.5408210000,73.8852080000,300,1,0,3,"Bakery, Desserts, Fast Food","['No Seating Available', 'Delivery', 'Credit Card', 'Debit Card', 'Cash', 'Takeaway Available', 'All Day Breakfast', 'Desserts and Bakes']",0,0
Cafe 15A - St Laurn Hotel,18.5387099863,73.8856771588,1000,3,2.6,76,"North Indian, Chinese, Continental","['Cash', 'Debit Card', 'Lunch', 'Credit Card', 'Breakfast', 'Dinner', 'Air Conditioned', 'Buffet', 'Indoor Seating', 'Fullbar']",52,28
Ebony - St Laurn Hotel,18.5386651655,73.8856962696,1400,3,2.4,344,"North Indian, Chinese, Continental, Fast Food","['Dinner', 'Cash', 'Takeaway Available', 'Breakfast', 'Debit Card', 'Lunch', 'Delivery', 'Credit Card', 'Valet Parking Available', 'Indoor Seating', 'Fullbar', 'Air Conditioned', 'Buffet']",243,199
Chai Kona,18.5389350440,73.8859447092,250,1,3.8,20,Fast Food,"['Dinner', 'Delivery', 'Breakfast', 'Lunch', 'Cash', 'Takeaway Available', 'Indoor Seating', 'Air Conditioned', 'Digital Payments Accepted']",3,3
Chandrama Restaurant & Bar,18.5413200654,73.8854478300,650,2,2.5,47,"North Indian, Chinese, Mughlai, Malwani, Seafood","['Credit Card', 'Dinner', 'Takeaway Available', 'Lunch', 'Cash', 'Debit Card', 'Delivery', 'Indoor Seating', 'Air Conditioned', 'Fullbar', 'Outdoor Seating', 'Table Reservation Not Required']",29,26
3.14 / 3point14,18.5374998192,73.8815549389,700,2,4.2,467,"European, Beverages","['Lunch', 'Cash', 'Debit Card', 'Dinner', 'Delivery', 'Credit Card', 'Gluten Free Options']",89,112
1441 Pizzeria,18.5386066758,73.8864553347,1000,3,4.0,1337,"Pizza, Italian, Fast Food, Beverages","['Dinner', 'Delivery', 'Credit Card', 'Lunch', 'Cash', 'Takeaway Available', 'Debit Card', 'Indoor Seating', 'Digital Payments Accepted', 'Free Wifi']",353,365
Savya Rasa,18.5387659329,73.8865136728,2100,4,4.5,1469,"South Indian, Mangalorean, Kerala, Chettinad","['Takeaway Available', 'Lunch', 'Serves Alcohol', 'Credit Card', 'Dinner', 'Cash', 'Delivery', 'Valet Parking Available', 'Outdoor Seating', 'Air Conditioned', 'Wifi', 'Fullbar', 'Indoor Seating', 'Table booking recommended']",660,1526
Zen Cafe,18.5386645297,73.8864831626,800,2,4.1,461,"Cafe, Sushi, Continental, Italian, Beverages","['Debit Card', 'Cash', 'Dinner', 'Credit Card', 'Delivery', 'Lunch', 'Indoor Seating', 'Outdoor Seating', 'Air Conditioned', 'Free Wifi', 'Vegan Options', 'Valet Parking Available', 'Desserts and Bakes', 'Pure Veg']",119,269
The Kashmir Ice Cream And Snacks,18.5345250668,73.8738935441,250,1,3.2,7,"Desserts, Momos, Beverages","['Delivery', 'Cash', 'Takeaway Available', 'Outdoor Seating', 'Digital Payments Accepted', 'Desserts and Bakes', 'Indoor Seating']",5,8
Hotel Samrat,18.5347685674,73.8743877411,400,1,0,19,"North Indian, Chinese, Mughlai","['Lunch', 'Credit Card', 'Cash', 'Debit Card', 'Delivery', 'Dinner', 'Takeaway Available', 'Digital Payments Accepted', 'Free Parking', 'Outdoor Seating', 'Indoor Seating']",0,0
Mallu Stories,18.5348130000,73.8744510000,200,1,3.5,6,Kerala,"['Dinner', 'Takeaway Available', 'Lunch', 'Cash', 'Indoor Seating']",5,0
Aai Chi Poli,18.5341772990,73.8747826964,100,1,0,4,North Indian,"['Dinner', 'Delivery', 'Lunch', 'Cash', 'Takeaway Available', 'Indoor Seating']",0,0
Atithi Snacks,18.5328796803,73.8740863279,150,1,0,0,"South Indian, North Indian","['Delivery', 'Lunch', 'Cash', 'Takeaway Available', 'Breakfast', 'Indoor Seating', 'Digital Payments Accepted', 'Pure Veg']",0,0
Siddharth Pav Bhaji,18.5195065131,73.8753680885,300,1,3.7,240,"Street Food, Beverages","['Delivery', 'Dinner', 'Takeaway Available', 'Lunch', 'Cash', 'Indoor Seating', 'Outdoor Seating', 'Pure Veg']",66,15
Bhavnagari Dry Fruit Co.,18.5193224000,73.8756032000,300,1,0,0,"Mithai, Street Food","['No Seating Available', 'Takeaway Available', 'Breakfast', 'Lunch', 'Cash', 'Credit Card', 'Debit Card', 'Desserts and Bakes']",0,0
Gulshan-E-Iran,18.5180857494,73.8745530322,600,2,3.4,10,"Chinese, North Indian","['Lunch', 'Cash', 'Takeaway Available', 'Outdoor Seating', 'Brunch', 'Indoor Seating', 'Digital Payments Accepted']",3,1
Supriya Restaurant,18.5192496384,73.8757764548,500,2,4.2,2253,"Fast Food, Chinese, North Indian, South Indian, Sandwich","['Cash', 'Debit Card', 'Delivery', 'No Alcohol Available', 'Dinner', 'Credit Card', 'Takeaway Available', 'Breakfast', 'Lunch', 'Pure Veg', 'Indoor Seating']",241,201
Maratha Samrat,18.5204313226,73.8725876436,1100,3,4.4,1050,Maharashtrian,"['Dinner', 'Delivery', 'Credit Card', 'Lunch', 'Cash', 'Takeaway Available', 'Debit Card', 'Indoor Seating']",275,410
Ibaco,18.5195070000,73.8759610000,300,1,0,1,"Desserts, Ice Cream","['Cash', 'Takeaway Available', 'Debit Card', 'Delivery', 'Credit Card', 'Indoor Seating', 'Air Conditioned', 'Desserts and Bakes']",0,2
Cafe Kaz,18.5179058084,73.8745449856,250,1,0,17,"Fast Food, Chinese, North Indian, Beverages","['Dinner', 'Delivery', 'Credit Card', 'Lunch', 'Cash', 'Takeaway Available', 'Debit Card', 'Indoor Seating', 'Air Conditioned', 'Digital Payments Accepted']",2,0
Cafe Chokolade,18.5192788865,73.8759434223,450,1,3.3,150,"Cafe, Fast Food, Desserts, Beverages","['Lunch', 'Delivery', 'Dinner', 'Cash', 'Takeaway Available', 'Outdoor Seating', 'Desserts and Bakes']",42,61
Gokool,18.5178533521,73.8746133819,600,2,3.8,369,"Fast Food, North Indian, Chinese, Beverages","['Lunch', 'Delivery', 'Dinner', 'Cash', 'Takeaway Available', 'Outdoor Seating', 'Air Conditioned', 'Pure Veg', 'Indoor Seating']",44,35
Natural Ice Cream,18.5192588579,73.8760165125,150,1,4.4,1381,"Ice Cream, Desserts","['Cash', 'Takeaway Available', 'Delivery', 'Indoor Seating', 'Desserts and Bakes', 'Air Conditioned', 'Pure Veg']",100,65
Mahesh Lunch Home,18.5205324187,73.8724072650,1500,3,4.2,736,"Seafood, North Indian, Chinese","['Lunch', 'Delivery', 'Credit Card', 'Dinner', 'Cash', 'Takeaway Available', 'Debit Card', 'Valet Parking Available', 'Indoor Seating', 'Air Conditioned', 'Fullbar', 'Serves Cocktails']",337,227
Sampan Food House,18.5173945971,73.8745868951,500,2,3.3,217,"Chinese, North Indian, Mughlai","['Dinner', 'Delivery', 'Lunch', 'Cash', 'Takeaway Available', 'Indoor Seating']",4,0
Mazdana Restaurant & Bar,18.5210108758,73.8722584024,1100,3,3.9,93,"Continental, North Indian, Bar Food, Chinese, Maharashtrian","['Dinner', 'Cash', 'Takeaway Available', 'Debit Card', 'Lunch', 'Delivery', 'Credit Card', 'Fullbar', 'Indoor Seating', 'Digital Payments Accepted', 'Outdoor Seating', 'Table booking recommended', 'Air Conditioned']",66,52
Bakers Lavazza,18.5172823720,73.8747629151,600,2,0,3,Bakery,"['Delivery', 'Breakfast', 'Cash', 'Takeaway Available', 'Indoor Seating', 'Desserts and Bakes']",1,6
Tandoori Singh,18.5177690000,73.8723390000,400,1,3.8,1385,"North Indian, Mughlai, Rolls","['Takeaway Available', 'Dinner', 'Cash', 'Lunch', 'Delivery', 'Indoor Seating']",95,94
Shwarma Express,18.5171308887,73.8750226361,250,1,0,0,"Fast Food, Lebanese, Beverages","['Dinner', 'Cash', 'Lunch', 'Takeaway Available', 'Indoor Seating', 'Digital Payments Accepted']",0,0
Cafe Taiba,18.5168639912,73.8749208301,450,1,3.7,756,"North Indian, Mughlai, Chinese","['Lunch', 'Delivery', 'Dinner', 'Cash', 'Takeaway Available', 'Free Parking', 'Digital Payments Accepted', 'Indoor Seating']",22,5
Cafe Diamond Queen,18.5183671054,73.8798497245,650,2,3.9,207,"North Indian, Maharashtrian, Chinese, Fast Food","['Takeaway Available', 'Breakfast', 'Dinner', 'Cash', 'Credit Card', 'Debit Card', 'Lunch', 'Indoor Seating']",123,38
Naaz Bakery,18.5177541619,73.8795473054,200,1,3.1,51,"Bakery, Desserts","['Cash', 'No Seating Available', 'Takeaway Available', 'Pre-Ordering Required', 'Desserts and Bakes']",25,8
Barista,18.5183273659,73.8791738078,700,2,3.3,152,Cafe,"['Lunch', 'Credit Card', 'Debit Card', 'Dinner', 'Cash', 'Takeaway Available', 'Breakfast', 'Sodexo', 'Ticket Restaurant', 'Axis Bank - Dining Delights', 'Wifi', 'Indoor Seating', 'Air Conditioned']",85,152
Dadu's Sweet Emporio,18.5176044228,73.8794551045,450,1,4.3,622,"Mithai, North Indian, Chinese, South Indian, Street Food, Italian, Beverages","['Dinner', 'Delivery', 'Credit Card', 'Debit Card', 'Lunch', 'Cash', 'Takeaway Available', 'Breakfast', 'Indoor Seating', 'Sugar Free Options', 'Air Conditioned', 'Desserts and Bakes']",97,260
George Restaurant,18.5175500589,73.8793967664,800,2,4.1,2987,"North Indian, Chinese, Biryani","['Dinner', 'Delivery', 'Credit Card', 'Debit Card', 'No Alcohol Available', 'Lunch', 'Cash', 'Takeaway Available', 'Breakfast', 'Air Conditioned', 'Outdoor Seating', 'Table booking recommended', 'Indoor Seating']",1380,921
Ice Cream Factory,18.5180555473,73.8790765777,300,1,3.5,280,"Ice Cream, Desserts","['Debit Card', 'Delivery', 'Cash', 'Takeaway Available', 'Credit Card', 'Air Conditioned', 'Digital Payments Accepted', 'Indoor Seating', 'Desserts and Bakes', 'Pure Veg']",83,192
Frozen Bottle,18.5181432923,73.8790326566,500,2,4.1,903,"Beverages, Desserts","['Delivery', 'Credit Card', 'Cash', 'Takeaway Available', 'Debit Card', 'Indoor Seating', 'Digital Payments Accepted', 'Sugar Free Options', 'Desserts and Bakes', 'Air Conditioned']",65,129
The Fernery - Hotel Aurora Towers,18.5181124544,73.8790356740,1200,3,3.3,67,"North Indian, Continental","['Dinner', 'Takeaway Available', 'Breakfast', 'Lunch', 'Cash', 'Credit Card', 'Debit Card', 'Valet Parking Available', 'Indoor Seating', 'Air Conditioned', 'Wheelchair Accessible', 'Fullbar', 'Table booking recommended', 'Wifi']",41,62
Karachi Sweet Mart,18.5181699973,73.8790185750,350,1,3.9,364,"Mithai, Street Food","['Delivery', 'Credit Card', 'Debit Card', 'Cash', 'Takeaway Available', 'Breakfast', 'Indoor Seating', 'Air Conditioned', 'Digital Payments Accepted', 'Desserts and Bakes']",60,60
Yana Sizzlers,18.5181684077,73.8790095225,1000,3,4.1,311,"Chinese, Continental, Asian, Seafood","['Dinner', 'Takeaway Available', 'Debit Card', 'Lunch', 'Cash', 'Credit Card', 'Indoor Seating', 'Air Conditioned', 'Table booking recommended']",185,341
Bagicha Corner,18.5181563269,73.8789954409,500,2,4.3,595,Fast Food,"['Dinner', 'Cash', 'Debit Card', 'Lunch', 'Takeaway Available', 'Credit Card', 'Indoor Seating', 'Pure Veg', 'Desserts and Bakes', 'Air Conditioned']",395,745
Zak n Zee,18.5179465018,73.8790343329,800,2,3.6,38,"North Indian, Asian, Beverages","['Dinner', 'Delivery', 'Credit Card', 'Debit Card', 'Lunch', 'Cash', 'Takeaway Available', 'Indoor Seating', 'Digital Payments Accepted', 'Table booking recommended', 'Buffet']",19,107
Aqua Lounge - Hotel Aurora Towers,18.5180660385,73.8789260387,1800,3,3.5,36,Finger Food,"['Dinner', 'Credit Card', 'Cash', 'Debit Card', 'Nightlife', 'Table booking recommended', 'Valet Parking Available', 'Air Conditioned', 'Wifi', 'Fullbar', 'Wheelchair Accessible', 'Indoor Seating', 'Smoking Area', 'LGBTQIA Friendly']",12,15
Juice World,18.5172760136,73.8794970140,350,1,2.4,441,"North Indian, Street Food, Juices, Beverages","['No Alcohol Available', 'Dinner', 'Cash', 'Lunch', 'Takeaway Available', 'Outdoor Seating', 'Digital Payments Accepted', 'Pure Veg', 'Indoor Seating', 'Table Reservation Not Required']",295,202
Gem Restaurant,18.5172442218,73.8795040548,600,2,2.7,10,"North Indian, Chinese, Mughlai","['Credit Card', 'Debit Card', 'No Alcohol Available', 'Dinner', 'Delivery', 'Takeaway Available', 'Breakfast', 'Lunch', 'Cash', 'Sodexo', 'Table Reservation Not Required', 'Indoor Seating', 'Air Conditioned']",5,1
Frenzy Gourmet,18.5179509526,73.8788791001,400,1,3.6,28,"Iranian, American, Fast Food","['Dinner', 'Cash', 'Takeaway Available', 'Lunch', 'Delivery', 'Breakfast', 'Indoor Seating', 'Free Parking', 'Digital Payments Accepted']",9,17
UFO Fries & Corn,18.5185044451,73.8788177446,700,2,3.7,815,Fast Food,"['Dinner', 'Delivery', 'Lunch', 'Cash', 'Takeaway Available', 'Indoor Seating', 'Pure Veg']",44,129
UFO Burger Kitchen,18.5184831448,73.8788093627,350,1,0,1,"Burger, Fast Food, Beverages","['Cash', 'Debit Card', 'Delivery', 'Takeaway Available', 'Dinner', 'Credit Card', 'Outdoor Seating', 'Digital Payments Accepted']",0,0
Chung Fa,18.5171027481,73.8794363290,800,2,4.1,879,"Chinese, Seafood, Fast Food","['Lunch', 'Cash', 'Takeaway Available', 'Debit Card', 'No Alcohol Available', 'Dinner', 'Delivery', 'Credit Card', 'Indoor Seating', 'Air Conditioned', 'Table Reservation Not Required']",382,242
Grand Hotel,18.5193392903,73.8793119416,800,2,3.5,52,"North Indian, Chinese, Malwani","['Lunch', 'Cash', 'Delivery', 'Credit Card', 'Serves Alcohol', 'Takeaway Available', 'Debit Card', 'Outdoor Seating', 'Indoor Seating', 'Smoking Area']",31,39
Coffee House,18.5189005679,73.8773106784,550,2,4.2,842,"Chinese, North Indian, South Indian, Fast Food, Beverages","['Delivery', 'No Alcohol Available', 'Dinner', 'Cash', 'Breakfast', 'Lunch', 'Takeaway Available', 'Credit Card', 'Debit Card', 'Pure Veg', 'Indoor Seating', 'Air Conditioned']",328,389
Yumma Swami,18.5189320415,73.8773586228,200,1,4.2,279,South Indian,"['Dinner', 'Cash', 'Lunch', 'Takeaway Available', 'Breakfast', 'Indoor Seating', 'Pure Veg', 'Digital Payments Accepted']",166,277
Donut Magic,18.5195233626,73.8773556054,150,1,4.0,150,Desserts,"['Cash', 'Takeaway Available', 'Delivery', 'Mall Parking', 'No Seating Available', 'Air Conditioned', 'Desserts and Bakes', 'Digital Payments Accepted', 'Pure Veg']",50,60
Ketli The Tea Bar,18.5195090000,73.8773840000,500,2,0,0,"Tea, Coffee, Beverages, Fast Food","['Lunch', 'Delivery', 'Credit Card', 'Cash', 'Takeaway Available', 'Debit Card', 'Free Parking', 'Digital Payments Accepted', 'Indoor Seating']",0,0
Pizza Hut,18.5193020943,73.8775004447,600,2,3.5,2084,"Pizza, Fast Food, Finger Food, American","['Dinner', 'Cash', 'Takeaway Available', 'Debit Card', 'Lunch', 'Mall Parking', 'Delivery', 'Credit Card', 'Outdoor Seating', 'Indoor Seating', 'Air Conditioned', 'Sodexo', 'Digital Payments Accepted']",331,253
McDonald's,18.5193281633,73.8774920627,500,2,3.9,3093,"Burger, Fast Food","['Dinner', 'Mall Parking', 'Delivery', 'Credit Card', 'Lunch', 'Cash', 'Takeaway Available', 'Debit Card', 'Indoor Seating', 'Free Parking', 'Air Conditioned']",356,156
Gelato Italiano,18.5195561077,73.8773760572,200,1,0,0,"Ice Cream, Desserts, Bakery","['Debit Card', 'Mall Parking', 'Delivery', 'Credit Card', 'Cash', 'Takeaway Available', 'Pure Veg', 'Indoor Seating', 'Desserts and Bakes', 'Air Conditioned']",0,2
Gelato Da Vinci,18.5195103281,73.8774682581,200,1,3.7,12,"Desserts, Ice Cream","['Cash', 'No Seating Available', 'Takeaway Available', 'Credit Card', 'Debit Card', 'Mall Parking', 'Delivery', 'Air Conditioned', 'Pure Veg', 'Desserts and Bakes']",6,11
McCafe by McDonald's,18.5194839412,73.8775369897,500,2,3.9,17,"Cafe, Beverages, Desserts","['Lunch', 'Cash', 'Credit Card', 'Debit Card', 'Dinner', 'Delivery', 'Breakfast']",0,7
Felicita,18.5196088814,73.8774535060,450,1,2.7,44,"Fast Food, Beverages","['Cash', 'Debit Card', 'Takeaway Available', 'Lunch', 'Credit Card', 'Delivery', 'Dinner', 'Air Conditioned', 'Indoor Seating', 'Pure Veg']",23,28
A'HA Snack Bar,18.5196463953,73.8774934039,300,1,2.5,25,"Fast Food, Beverages","['Dinner', 'Cash', 'Debit Card', 'Lunch', 'Mall Parking', 'Takeaway Available', 'Credit Card', 'Indoor Seating', 'Air Conditioned', 'Pure Veg', 'Ticket Restaurant']",23,12
Cactus Beer Bar,18.5178263292,73.8770250231,800,2,3.8,68,Finger Food,"['Cash', 'Credit Card', 'Debit Card', 'Sports TV', 'Live Music', 'Fullbar', 'Indoor Seating', 'Smoking Area']",29,32
China Pacific,18.5186350000,73.8782780000,350,1,0,0,Chinese,"['Dinner', 'Cash', 'Takeaway Available', 'Debit Card', 'Lunch', 'Delivery', 'Credit Card', 'Indoor Seating', 'Air Conditioned']",0,0
Adraq by OYO,18.5372010000,73.8810600000,300,1,0,4,North Indian,"['Cash', 'Credit Card', 'Delivery', 'Debit Card', 'Digital Payments Accepted']",1,0
Panchali Sweets,18.5354583779,73.8800341263,200,1,3.5,7,Mithai,"['No Seating Available', 'Takeaway Available', 'Cash', 'Desserts and Bakes']",3,0
Sahil,18.5347806470,73.8789374381,400,1,3.5,48,"North Indian, Chinese, Mughlai","['Lunch', 'Delivery', 'Credit Card', 'No Alcohol Available', 'Dinner', 'Cash', 'Takeaway Available', 'Debit Card', 'Indoor Seating', 'Table Reservation Not Required']",18,4
Coconut Grove Resto-Bar,18.5255308782,73.8670760393,1200,3,4.1,811,"Mangalorean, Seafood, Chettinad, North Indian","['Lunch', 'Cash', 'Delivery', 'Credit Card', 'Dinner', 'Takeaway Available', 'Debit Card', 'Valet Parking Available', 'Outdoor Seating', 'Table booking recommended', 'Fullbar', 'Indoor Seating', 'Air Conditioned', 'Smoking Area']",192,164
Red Chillies Resto Bar,18.5256456411,73.8667528331,1000,3,3.7,14,"North Indian, Chinese, Mughlai, Malwani","['Dinner', 'Cash', 'Delivery', 'Credit Card', 'Lunch', 'Takeaway Available', 'Debit Card', 'Fullbar', 'Indoor Seating', 'Outdoor Seating', 'Table booking recommended', 'Smoking Area']",9,11
Kubera Garden Restaurant,18.5263084668,73.8657956198,700,2,3.0,36,"North Indian, Chinese, Malwani","['Cash', 'Takeaway Available', 'Debit Card', 'Credit Card', 'Delivery', 'Dinner', 'Lunch', 'Fullbar', 'Indoor Seating', 'Smoking Area', 'Digital Payments Accepted']",7,9
Hotel Seetali,18.5232826545,73.8673878461,500,2,0,2,"North Indian, Mughlai, Chinese","['Dinner', 'Takeaway Available', 'Lunch', 'Cash', 'Indoor Seating']",0,3
Tourist Restaurant,18.5234234872,73.8659917563,400,1,3.6,29,"North Indian, Chinese","['Dinner', 'Breakfast', 'Cash', 'Delivery', 'Lunch', 'Takeaway Available', 'Indoor Seating', 'Free Parking']",0,0
Aapla Katta Royal Darbar Family Restaurant,18.5240640000,73.8646950000,400,1,0,2,North Indian,"['Lunch', 'Delivery', 'Breakfast', 'Dinner', 'Cash', 'Takeaway Available', 'Free Parking', 'Digital Payments Accepted', 'Indoor Seating']",2,6
DSK Bakery,18.5230251496,73.8682930917,300,1,3.4,4,Bakery,"['No Seating Available', 'Cash', 'Takeaway Available', 'Desserts and Bakes', 'Digital Payments Accepted']",0,0
Swarajya Wadewale,18.5232467310,73.8687514141,150,1,0,1,"Fast Food, South Indian","['Dinner', 'Takeaway Available', 'Lunch', 'Cash', 'Breakfast', 'Indoor Seating', 'Digital Payments Accepted', 'Free Parking', 'Pure Veg']",0,0
Kadak Pyali,18.5227530205,73.8673935458,150,1,0,1,Fast Food,"['Lunch', 'Cash', 'Breakfast', 'Dinner', 'Takeaway Available', 'Free Parking', 'Indoor Seating', 'Digital Payments Accepted']",1,0
Cafe Canada,18.5272856929,73.8639284670,250,1,3.5,9,"Maharashtrian, North Indian, Mughlai","['Dinner', 'Cash', 'Breakfast', 'Lunch', 'Takeaway Available', 'Indoor Seating', 'Digital Payments Accepted', 'Free Parking']",7,0
Tanisha's Coffee Craze,18.5223953737,73.8665003702,250,1,0,1,Fast Food,"['Delivery', 'Takeaway Available', 'Cash', 'Dinner', 'No Alcohol Available', 'Lunch', 'Indoor Seating', 'Free Parking', 'Digital Payments Accepted']",0,11
Hotel Patil Wada,18.5223556351,73.8675410673,750,2,0,0,"North Indian, Malwani","['Dinner', 'Lunch', 'Credit Card', 'Takeaway Available', 'Cash', 'Debit Card', 'Indoor Seating', 'Digital Payments Accepted', 'Air Conditioned']",0,7
Poona Hotel,18.5273165291,73.8637990505,200,1,3.6,6,"North Indian, Maharashtrian, Biryani","['Takeaway Available', 'Dinner', 'Cash', 'Lunch', 'Indoor Seating']",2,3
Hotel Samudra,18.5221950911,73.8683963567,500,2,0,2,"North Indian, Chinese","['Cash', 'Lunch', 'Dinner', 'Takeaway Available', 'Debit Card', 'Credit Card', 'Fullbar', 'Indoor Seating', 'Digital Payments Accepted']",1,3
Neel Dining hall,18.5222411879,73.8687252626,400,1,0,1,Maharashtrian,"['Cash', 'Lunch', 'Takeaway Available', 'Credit Card', 'Debit Card', 'Dinner', 'Digital Payments Accepted', 'Pure Veg', 'Indoor Seating']",0,2
Sujata Mastani,18.5219426711,73.8658143952,250,1,4.2,324,"Ice Cream, Beverages","['Cash', 'Takeaway Available', 'Delivery', 'Indoor Seating', 'Desserts and Bakes', 'Digital Payments Accepted', 'Pure Veg']",26,31
Coffee Craze,18.5219156488,73.8657493517,300,1,3.4,7,"Fast Food, Beverages","['Dinner', 'Lunch', 'Takeaway Available', 'Delivery', 'Cash', 'Digital Payments Accepted', 'Free Parking', 'Indoor Seating']",4,3
Vasant Family Resto Bar,18.5230248317,73.8638815284,1400,3,3.7,214,"Chinese, North Indian, Seafood","['Dinner', 'Delivery', 'Credit Card', 'Lunch', 'Cash', 'Takeaway Available', 'Debit Card', 'Free Parking', 'Fullbar', 'Indoor Seating', 'Air Conditioned', 'Live Sports Screening', 'Outdoor Seating', 'Table booking recommended']",24,33
Cafe Durga,18.5220720602,73.8687614724,300,1,3.8,12,"Fast Food, South Indian, Maharashtrian, North Indian, Beverages","['Delivery', 'Breakfast', 'Lunch', 'Takeaway Available', 'Dinner', 'Cash', 'Free Parking', 'Digital Payments Accepted', 'Indoor Seating']",2,4
GC Biryani,18.5249166888,73.8712616265,200,1,0,0,Biryani,"['No Seating Available', 'Dinner', 'Delivery', 'Lunch', 'Cash', 'Takeaway Available']",0,0
Starbucks Coffee,18.5393381127,73.8866440952,700,2,4.5,3004,"Cafe, Coffee, Tea, Desserts","['Lunch', 'Takeaway Available', 'Breakfast', 'Dinner', 'Cash', 'Delivery', 'Credit Card', 'Debit Card', 'Outdoor Seating', 'Digital Payments Accepted', 'Table Reservation Not Required', 'Wifi', 'Indoor Seating', 'Air Conditioned']",625,1289
Abyssinian,18.5393966021,73.8868576661,1600,3,3.9,126,"Ethiopian, African","['Dinner', 'Takeaway Available', 'Debit Card', 'Lunch', 'Cash', 'Credit Card', 'Air Conditioned', 'Free Parking', 'Serves Cocktails', 'Table booking recommended', 'Indoor Seating']",79,188
Mystic Masala - Blue Diamond,18.5381813538,73.8867929578,2500,4,4.1,168,"North Indian, Mughlai, Maharashtrian","['Lunch', 'Cash', 'Takeaway Available', 'Debit Card', 'Dinner', 'Delivery', 'Credit Card', 'Fullbar', 'Table booking recommended', 'Indoor Seating', 'Air Conditioned']",92,272
Kwality Wall's,18.5395514082,73.8868462667,200,1,0,1,"Ice Cream, Desserts","['Cash', 'Delivery']",0,1
Latitude - Blue Diamond,18.5381536983,73.8866819814,2000,4,4.3,753,"North Indian, Mediterranean, Italian, European","['Lunch', 'Delivery', 'Credit Card', 'Debit Card', 'Dinner', 'Cash', 'Takeaway Available', 'Breakfast', 'Valet Parking Available', 'Outdoor Seating', '4/5 Star', 'Air Conditioned', 'Luxury Dining', 'Brunch', 'Fullbar', 'Indoor Seating', 'Table booking recommended', 'Smoking Area', 'Buffet']",377,803
Whispering Bamboo - Blue Diamond,18.5381667314,73.8868033513,2500,4,4.2,244,"Chinese, Asian","['Dinner', 'Delivery', 'Credit Card', 'Lunch', 'Cash', 'Takeaway Available', 'Debit Card', 'Valet Parking Available', 'Indoor Seating', 'Air Conditioned', 'Fullbar', 'Table booking recommended']",122,236
Easy - Blue Diamond,18.5381425725,73.8867731765,2600,4,3.5,38,"Continental, Finger Food","['Lunch', 'Takeaway Available', 'Debit Card', 'Dinner', 'Cash', 'Delivery', 'Credit Card', 'Valet Parking Available', 'Outdoor Seating', 'Table booking recommended', 'LGBTQIA Friendly', 'Smoking Area', 'Fullbar', 'Indoor Seating', 'Air Conditioned']",17,20
Caramel - Blue Diamond,18.5380742285,73.8865897805,1000,3,2.8,25,"Bakery, Cafe, Desserts","['Cash', 'Debit Card', 'Dinner', 'Credit Card', 'Breakfast', 'Lunch', 'Air Conditioned', 'Desserts and Bakes', 'Indoor Seating']",11,18
 Bar,18.5397592995,73.8870085403,1700,3,4.0,230,"North Indian, Chinese, Continental","['Takeaway Available', 'Debit Card', 'Lunch', 'Cash', 'Delivery', 'Credit Card', 'Dinner', 'LGBTQIA Friendly', 'Smoking Area', 'Live Sports Screening', 'Fullbar', 'Indoor Seating', 'Table booking recommended', 'Air Conditioned', 'Nightlife', 'Live Music', 'Rooftop']",171,166
Cake Dior,18.5394792501,73.8874085248,600,2,4.4,1082,"Bakery, Desserts","['Cash', 'Takeaway Available', 'Debit Card', 'Delivery', 'Credit Card', 'Indoor Seating', 'Free Wifi', 'Kid Friendly', 'Vegan Options', 'Pre-Ordering Required', 'Catering Available', 'Sugar Free Options', 'Gluten Free Options', 'Desserts and Bakes']",401,663
German Bakery,18.5396788767,73.8875235245,1100,3,3.9,5672,"German, Italian, Cafe, Beverages","['Delivery', 'Credit Card', 'Breakfast', 'Lunch', 'Dinner', 'Cash', 'Takeaway Available', 'Air Conditioned', 'Outdoor Seating', 'All Day Breakfast', 'Buffet', 'Indoor Seating']",2621,5128
Healthy Kitchen,18.5398320931,73.8876804337,700,2,0,2,"Chinese, North Indian, Fast Food","['No Seating Available', 'Dinner', 'Cash', 'Takeaway Available', 'Lunch', 'Delivery', 'Digital Payments Accepted']",0,0
Kitsch - The O Hotel,18.5400180506,73.8876891509,2900,4,3.9,237,"Italian, European, North Indian","['Dinner', 'Takeaway Available', 'Lunch', 'Cash', 'Delivery', 'Credit Card', 'Breakfast', 'Debit Card', 'Valet Parking Available', 'Indoor Seating', 'Variable Menu', 'Axis Bank - Dining Delights', 'Wheelchair Accessible', 'All Day Breakfast', 'Buffet', 'Outdoor Seating', 'Table booking recommended', 'Air Conditioned']",162,218
The Place - Touche The Sizzler,18.5185842420,73.8786370307,1000,3,4.2,1824,"Continental, North Indian, Seafood","['Dinner', 'Cash', 'Credit Card', 'Lunch', 'Takeaway Available', 'Debit Card', 'Indoor Seating', 'Air Conditioned']",917,805
Apsara Ice Creams,18.5186328831,73.8784663752,400,1,4.2,497,"Ice Cream, Desserts","['Delivery', 'Cash', 'Takeaway Available', 'Indoor Seating', 'Sugar Free Options', 'Pure Veg', 'Air Conditioned', 'Desserts and Bakes']",40,22
Sampan Food Court,18.5187498760,73.8785324246,600,2,4.0,1126,"Chinese, North Indian, Seafood, Street Food","['Lunch', 'Cash', 'Takeaway Available', 'Debit Card', 'Dinner', 'Delivery', 'Credit Card', 'Outdoor Seating', 'Indoor Seating']",148,69
Meridian Ice Cream,18.5187511477,73.8785900921,200,1,4.1,97,"Ice Cream, Beverages","['Takeaway Available', 'Cash', 'Outdoor Seating', 'Desserts and Bakes', 'Pure Veg']",52,8
The Thali Palace,18.5188481119,73.8786407188,400,1,3.8,391,"Gujarati, Rajasthani","['Dinner', 'Cash', 'Takeaway Available', 'Credit Card', 'Lunch', 'Delivery', 'Debit Card', 'Indoor Seating', 'Free Parking', 'Air Conditioned', 'Pure Veg']",54,10
Kabir's Veg Shawarma,18.5188894409,73.8785756752,300,1,3.9,29,Fast Food,"['No Seating Available', 'Delivery', 'Debit Card', 'Dinner', 'Cash', 'Takeaway Available', 'Credit Card', 'Digital Payments Accepted', 'Pure Veg']",6,2
Ram Krishna,18.5189307698,73.8786826283,700,2,4.3,3402,"South Indian, Street Food, Fast Food, North Indian, Chinese, Beverages","['Lunch', 'Delivery', 'Breakfast', 'Dinner', 'Cash', 'Takeaway Available', 'Credit Card', 'Debit Card', 'Valet Parking Available', 'Air Conditioned', 'Pure Veg', 'Indoor Seating']",766,794
Kayani Bakery,18.5148629976,73.8798309490,150,1,4.3,2656,Bakery,"['No Seating Available', 'Delivery', 'Cash', 'Takeaway Available', 'Desserts and Bakes']",923,325
Sarangi Family Restaurant & Bar,18.5146531685,73.8799710944,850,2,4.0,567,"North Indian, Mughlai, Chinese, Mangalorean, Seafood, Bar Food","['Lunch', 'Delivery', 'Credit Card', 'Dinner', 'Cash', 'Takeaway Available', 'Debit Card', 'Live Sports Screening', 'Live Music', 'Table booking recommended', 'Smoking Area', 'Fullbar', 'Indoor Seating', 'Wifi']",301,113
Badshah,18.5144010553,73.8798718527,450,1,0,0,"Fast Food, North Indian, South Indian, Chinese, Desserts","['Lunch', 'Breakfast', 'No Alcohol Available', 'Dinner', 'Takeaway Available', 'Credit Card', 'Indoor Seating', 'Catering Available', 'Pure Veg', 'Outdoor Seating']",7,134
King's Resto Bar,18.5143927893,73.8798782229,750,2,0,0,"Parsi, North Indian, Iranian, Continental","['Dinner', 'Delivery', 'Credit Card', 'Lunch', 'Cash', 'Takeaway Available', 'Debit Card', 'Fullbar', 'Indoor Seating', 'Catering Available', 'Wine', 'Air Conditioned']",4,75
Olympia,18.5142096652,73.8797545061,200,1,4.4,1552,Rolls,"['Delivery', 'No Seating Available', 'Dinner', 'Takeaway Available', 'No Alcohol Available', 'Lunch', 'Cash']",107,40
Bagban Restaurant,18.5141451267,73.8798983395,550,2,2.1,1260,"North Indian, Mughlai, Malwani","['No Alcohol Available', 'Dinner', 'Cash', 'Debit Card', 'Lunch', 'Takeaway Available', 'Outdoor Seating', 'Indoor Seating', 'Air Conditioned']",761,316
Murli Best Bhelpuri,18.5141216003,73.8796579465,100,1,4.1,936,Street Food,"['No Seating Available', 'Dinner', 'Delivery', 'Lunch', 'Cash', 'Takeaway Available', 'Pure Veg']",46,29
WOW! Momo,18.5141000000,73.8796000000,450,1,0,3,Tibetan,"['Dinner', 'Cash', 'Takeaway Available', 'Debit Card', 'Lunch', 'Delivery', 'Credit Card', 'Indoor Seating', 'Air Conditioned']",0,22
Live Cake World Cake Shop,18.5139823495,73.8797662407,350,1,3.9,109,Bakery,"['No Seating Available', 'Delivery', 'Credit Card', 'Cash', 'Takeaway Available', 'Desserts and Bakes']",13,16
Mangal Vihar,18.5156355479,73.8797521591,700,2,3.4,30,"North Indian, Mughlai, Chinese, Maharashtrian, Biryani, Malwani","['Dinner', 'Takeaway Available', 'No Alcohol Available', 'Lunch', 'Cash', 'Credit Card', 'Outdoor Seating', 'Indoor Seating']",22,52
Mughal's,18.5157309243,73.8796619698,800,2,4.0,775,"North Indian, Mughlai, Kebab","['Lunch', 'Cash', 'Takeaway Available', 'Debit Card', 'No Alcohol Available', 'Dinner', 'Delivery', 'Credit Card', 'Indoor Seating', 'Table booking recommended', 'Air Conditioned']",306,227
Bread Story,18.5138055835,73.8797910511,300,1,4.1,112,Bakery,"['Delivery', 'Credit Card', 'No Seating Available', 'Cash', 'Takeaway Available', 'Debit Card', 'Pre-Ordering Required', 'Air Conditioned', 'Desserts and Bakes']",25,44
Venky's Xprs,18.5137877797,73.8797343895,400,1,3.9,535,Fast Food,"['Dinner', 'Cash', 'Takeaway Available', 'Debit Card', 'Lunch', 'Delivery', 'Credit Card', 'Indoor Seating', 'Air Conditioned']",51,81
Law Of Chill,18.5151618446,73.8787858933,700,2,3.3,183,"Italian, Continental, North Indian, Beverages","['Dinner', 'Cash', 'Takeaway Available', 'Credit Card', 'Lunch', 'Delivery', 'Debit Card', 'Indoor Seating', 'Digital Payments Accepted', 'Pure Veg']",105,221
Mona Food,18.5154848532,73.8787714764,500,2,3.7,481,"North Indian, Chinese, Fast Food, Desserts","['Dinner', 'Cash', 'Debit Card', 'Lunch', 'Takeaway Available', 'Credit Card', 'Indoor Seating', 'Pure Veg', 'Air Conditioned']",297,222
Marz-O-Rin,18.5165006094,73.8788958639,300,1,4.4,6719,"Fast Food, Desserts, Beverages","['Dinner', 'Delivery', 'Credit Card', 'Lunch', 'Cash', 'Takeaway Available', 'Breakfast', 'Indoor Seating', 'Sugar Free Options', 'Desserts and Bakes']",1681,1790
Pasteur Bakery,18.5165254072,73.8789086044,200,1,3.9,130,"Desserts, Bakery, Fast Food","['No Seating Available', 'Cash', 'Lunch', 'Takeaway Available', 'Desserts and Bakes']",68,112
Pasteur Ice Cream Parlour,18.5165915344,73.8789662719,200,1,4.2,369,"Bakery, Ice Cream, Desserts","['Delivery', 'Cash', 'Takeaway Available', 'Pure Veg', 'Indoor Seating', 'Desserts and Bakes']",218,301
The Jumbo King,18.5165203204,73.8786578178,200,1,0,0,"Burger, Fast Food","['No Seating Available', 'Cash', 'Takeaway Available', 'Delivery', 'Digital Payments Accepted']",0,0
Cafe Tunes,18.5163158980,73.8790618256,750,2,3.9,216,"Continental, Finger Food, Asian, Italian","['Lunch', 'Cash', 'Takeaway Available', 'Debit Card', 'Dinner', 'Credit Card', 'Live Sports Screening', 'Live Music', 'Digital Payments Accepted', 'Fullbar', 'Indoor Seating', 'Air Conditioned', 'Smoking Area']",112,25
Mahalaxmi Khaman Dhokla,18.5164440000,73.8785130000,200,1,3.0,13,Gujarati,"['Dinner', 'Cash', 'Takeaway Available', 'Lunch', 'Delivery', 'Indoor Seating']",4,0
Budhani Waferwala,18.5167438178,73.8785853982,200,1,4.2,383,"Mithai, Street Food","['No Seating Available', 'Cash', 'Takeaway Available', 'Credit Card', 'Delivery', 'Debit Card', 'Desserts and Bakes', 'Pure Veg']",104,47
Mayur Veg Thali,18.5166363611,73.8795154542,650,2,4.0,742,"North Indian, Rajasthani, Street Food","['No Alcohol Available', 'Dinner', 'Delivery', 'Lunch', 'Cash', 'Takeaway Available', 'Credit Card', 'Debit Card', 'Outdoor Seating', 'Table Reservation Not Required', 'Pure Veg', 'Buffet', 'Indoor Seating', 'Air Conditioned']",182,86
Mahanaaz Restaurant,18.5166710143,73.8781126589,200,1,3.3,38,Fast Food,"['Lunch', 'Cash', 'Breakfast', 'Dinner', 'Takeaway Available', 'Free Parking', 'Indoor Seating']",23,17
Shahji's Parantha House,18.5165310000,73.8796010000,500,2,3.6,28,"North Indian, Beverages","['Dinner', 'Cash', 'Takeaway Available', 'Lunch', 'Delivery', 'Indoor Seating', 'Digital Payments Accepted', 'Pure Veg']",6,16
R Bhagat Tarrachand,18.5163406958,73.8795888796,700,2,4.0,430,"North Indian, Chinese","['Lunch', 'Delivery', 'Credit Card', 'No Alcohol Available', 'Dinner', 'Cash', 'Takeaway Available', 'Debit Card', 'Indoor Seating', 'Air Conditioned', 'Pure Veg', 'Serves Jain Food']",217,280
Surve's Pure Non-Veg,18.5164942510,73.8796224073,550,2,4.3,520,"Maharashtrian, Desserts","['Delivery', 'Credit Card', 'Lunch', 'Takeaway Available', 'Debit Card', 'No Alcohol Available', 'Dinner', 'Cash', 'Indoor Seating', 'Digital Payments Accepted']",69,49
Chinese Room,18.5167937311,73.8795603812,1200,3,4.4,1616,"Chinese, Thai, Asian, Seafood, Bar Food","['Dinner', 'Cash', 'Takeaway Available', 'Debit Card', 'Lunch', 'Delivery', 'Credit Card', 'Fullbar', 'Indoor Seating', 'Sodexo', 'Air Conditioned']",443,508
Baramati Thali,18.5162135278,73.8780764490,300,1,3.6,389,"Maharashtrian, Biryani","['Dinner', 'Delivery', 'Lunch', 'Cash', 'Takeaway Available', 'Indoor Seating', 'Free Parking']",26,30
Grand Dilli Darbar,18.5169752628,73.8780717552,800,2,3.9,166,"North Indian, Mughlai, Charcoal Chicken, Chinese, Kebab, Maharashtrian","['Dinner', 'Delivery', 'Lunch', 'Cash', 'Takeaway Available', 'Indoor Seating']",102,14
Pune Zarthosti Seva Mandal,18.5156053454,73.8787382841,150,1,3.7,333,Street Food,"['Takeaway Available', 'Lunch', 'Cash', 'Delivery', 'Breakfast', 'Dinner']",144,25
Udupi House,18.5159458388,73.8779986650,300,1,0,1,"South Indian, Street Food","['Dinner', 'Takeaway Available', 'Delivery', 'Cash', 'Lunch', 'Digital Payments Accepted', 'Indoor Seating', 'Pure Veg']",1,1
Smokin' Joe's,18.5174505506,73.8786162436,600,2,3.2,870,"Pizza, Fast Food","['Lunch', 'Delivery', 'Credit Card', 'Dinner', 'Cash', 'Takeaway Available', 'Debit Card', 'Sodexo', 'Air Conditioned', 'Indoor Seating']",60,58
Momo O'clock,18.5406500000,73.8878630000,250,1,0,0,"Maharashtrian, Fast Food","['No Seating Available', 'Dinner', 'Takeaway Available', 'Lunch', 'Cash', 'Breakfast']",0,0
Caesars Cafe,18.5408686844,73.8875191659,800,2,0,0,"Bengali, North Indian, South Indian, Chinese","['Dinner', 'Cash', 'Credit Card', 'Debit Card', 'Lunch', 'Takeaway Available', 'Breakfast', 'Indoor Seating', 'Air Conditioned']",0,0
Hug My Mug- Helly And Chilly Premium Cafe,18.5409761259,73.8875081018,350,1,3.4,175,"Cafe, Fast Food","['Dinner', 'Delivery', 'Debit Card', 'Lunch', 'Cash', 'Takeaway Available', 'Credit Card', 'Indoor Seating', 'Air Conditioned', 'Pure Veg', 'Digital Payments Accepted', 'Desserts and Bakes']",82,239
Ruen Thai,18.5409526032,73.8876599818,1300,3,3.9,177,"Asian, Thai, Sushi, Beverages","['Credit Card', 'Lunch', 'Takeaway Available', 'Dinner', 'Cash', 'Debit Card', 'Delivery', 'Table booking recommended', 'Air Conditioned', 'Outdoor Seating', 'Indoor Seating', 'Digital Payments Accepted']",85,144
Raju Thali,18.5410419259,73.8874916732,200,1,3.6,5,North Indian,"['Dinner', 'Cash', 'Delivery', 'Takeaway Available', 'Lunch', 'Pure Veg', 'Indoor Seating']",1,1
Raasta Cafe,18.5196778687,73.8708257675,1400,3,3.9,656,"Continental, Italian, Asian, North Indian","['Dinner', 'Delivery', 'Credit Card', 'Lunch', 'Cash', 'Takeaway Available', 'Debit Card', 'Indoor Seating', 'LGBTQIA Friendly', 'Smoking Area', 'Wine', 'Live Entertainment', 'Nightlife', 'Fullbar', 'Table booking recommended', 'Wifi', 'Beer', 'Live Sports Screening', 'Valet Parking Available', 'Outdoor Seating']",355,751
Cinnamon Restaurant,18.5197179258,73.8707815111,1000,3,3.8,138,"North Indian, Chinese, Continental, Kebab","['Dinner', 'Delivery', 'Credit Card', 'Lunch', 'Cash', 'Takeaway Available', 'Debit Card', 'Valet Parking Available', 'Indoor Seating', 'Air Conditioned', 'Live Music', 'Wine', 'Fullbar', 'Table booking recommended', 'Beer']",43,41
Hotel Trishna,18.5225203117,73.8701706380,550,2,3.6,22,"North Indian, Chinese, Maharashtrian","['Dinner', 'Debit Card', 'Cash', 'Takeaway Available', 'Lunch', 'Credit Card', 'Delivery', 'Free Parking', 'Air Conditioned', 'Digital Payments Accepted', 'Indoor Seating', 'Fullbar']",8,4
Murthy's Confectionery & Bakery,18.5220011664,73.8695409894,200,1,0,25,"Bakery, Street Food","['No Seating Available', 'Delivery', 'Cash', 'Takeaway Available', 'Desserts and Bakes']",1,1
Ashok Restaurant,18.5201582357,73.8690913841,500,2,2.9,5,"North Indian, Chinese","['Dinner', 'Credit Card', 'Lunch', 'Cash', 'Debit Card', 'Fullbar', 'Indoor Seating', 'Outdoor Seating']",3,4
Dario's,18.5374559517,73.8889159262,1600,3,4.1,5255,"Italian, Continental, Mexican, Salad, Healthy Food, Beverages","['Lunch', 'Cash', 'Takeaway Available', 'Debit Card', 'Dinner', 'Delivery', 'Credit Card', 'Breakfast', 'Valet Parking Available', 'Indoor Seating', 'Table booking recommended', 'Smoking Area', 'Vegan Options', 'All Day Breakfast', 'Outdoor Seating', 'Romantic Dining', 'Air Conditioned', 'Pet Friendly', 'Pure Veg']",1763,1751
Sant Spa Cuisine,18.5374721636,73.8887767866,1300,3,4.4,1483,"Salad, Continental, Healthy Food, Mediterranean, Pizza","['Lunch', 'Breakfast', 'Dinner', 'Credit Card', 'Debit Card', 'Cash', 'Delivery', 'Takeaway Available', 'Indoor Seating', 'Outdoor Seating', 'Pure Veg', 'Valet Parking Available', 'Air Conditioned', 'Table booking recommended']",866,3027
Number 19,18.5375099914,73.8886212185,600,2,3.8,9,"Asian, Continental, Beverages","['Delivery', 'Credit Card', 'Debit Card', 'Lunch', 'Takeaway Available', 'Dinner', 'Cash', 'Outdoor Seating', 'Air Conditioned', 'All Day Breakfast', 'Desserts and Bakes', 'Indoor Seating']",6,20
Holy Smokes!!!,18.5411509566,73.8876140490,700,2,3.7,358,"Continental, North Indian, Fast Food, Beverages","['Cash', 'Takeaway Available', 'Lunch', 'Credit Card', 'Delivery', 'Breakfast', 'Dinner', 'Debit Card', 'Indoor Seating', 'Wifi', 'Table booking recommended', 'Smoking Area']",190,241
Yogi Tree,18.5414249636,73.8876549527,1000,3,4.0,851,"North Indian, Italian, Continental, Cafe","['Cash', 'Delivery', 'Breakfast', 'Dinner', 'Credit Card', 'Takeaway Available', 'Lunch', 'Debit Card', 'Outdoor Seating', 'Air Conditioned', 'Indoor Seating', 'Smoking Area']",189,227
Cinnamon Restaurant - Park Central,18.5412981321,73.8874785975,1000,3,3.6,21,"North Indian, American, Continental, Street Food, Beverages","['Breakfast', 'Debit Card', 'Lunch', 'Takeaway Available', 'Delivery', 'Dinner', 'Cash', 'Credit Card', 'Indoor Seating', 'Table booking recommended', 'Free Parking', 'Buffet', 'Outdoor Seating']",3,17
Aapki Rasoi,18.5417523728,73.8872871548,400,1,3.6,60,"North Indian, Fast Food","['Dinner', 'Cash', 'Takeaway Available', 'Lunch', 'Delivery', 'Breakfast', 'Indoor Seating']",0,2
Gurdjieff's Resto Bar,18.5418347018,73.8868147507,1300,3,3.0,54,"North Indian, Chinese, Beverages","['Takeaway Available', 'Debit Card', 'Dinner', 'Cash', 'Delivery', 'Credit Card', 'Fullbar', 'Indoor Seating', 'Air Conditioned', 'LGBTQIA Friendly', 'Smoking Area', 'Outdoor Seating', 'Axis Bank - Dining Delights']",16,2
Gurdjieff's Resto,18.5417838421,73.8867788762,700,2,2.9,9,"North Indian, Chinese","['Dinner', 'Credit Card', 'Lunch', 'Cash', 'Delivery', 'Debit Card', 'Fullbar', 'Indoor Seating', 'Smoking Area', 'Outdoor Seating']",1,9
Truffle Waffle,18.5417739881,73.8867718354,500,2,3.5,89,"Burger, Fast Food, Desserts, Beverages","['Dinner', 'Delivery', 'Lunch', 'Cash', 'Takeaway Available', 'Indoor Seating']",4,67
The Dark Horse,18.5417994179,73.8867718354,1400,3,3.1,69,"North Indian, Chinese, Mughlai, Beverages","['Lunch', 'Delivery', 'Credit Card', 'Dinner', 'Cash', 'Takeaway Available', 'Debit Card', 'Fullbar', 'Air Conditioned', 'Smoking Area', 'Indoor Seating', 'Wifi']",25,35
Classic Fries And Burger,18.5418029145,73.8867316023,200,1,3.4,126,"Burger, Fast Food","['Debit Card', 'Delivery', 'Credit Card', 'Cash', 'Takeaway Available', 'Pure Veg', 'Indoor Seating', 'Digital Payments Accepted']",6,32
Spicy Caterers,18.5417135923,73.8864348829,200,1,0,14,Biryani,"['Dinner', 'Delivery', 'Lunch', 'Cash', 'Takeaway Available', 'Indoor Seating']",0,0
Street Treat,18.5417460153,73.8864157721,200,1,0,1,Street Food,"['No Alcohol Available', 'Lunch', 'Cash', 'No Seating Available', 'Dinner', 'Takeaway Available']",0,1
Cafe Basement,18.5417364791,73.8863812387,200,1,0,2,Fast Food,"['Delivery', 'Dinner', 'Cash', 'Takeaway Available', 'Lunch', 'Indoor Seating']",0,0
Cafe Coffee Day,18.5135003756,73.8793551922,600,2,3.6,262,"Cafe, Fast Food, Desserts, Beverages, Sandwich","['Credit Card', 'Debit Card', 'Delivery', 'Cash', 'Takeaway Available', 'Breakfast', 'Desserts and Bakes', 'Indoor Seating']",31,89
Akhtar's Samosa,18.5135570000,73.8793250000,150,1,3.4,17,"Street Food, Beverages","['Lunch', 'Cash', 'Takeaway Available', 'Dinner', 'Delivery', 'Outdoor Seating', 'Indoor Seating', 'Digital Payments Accepted']",5,12
BADSHAH SWEETS,18.5131334895,73.8788985461,500,2,0,2,"Mithai, Street Food","['Delivery', 'Debit Card', 'Cash', 'Takeaway Available', 'Credit Card', 'No Seating Available', 'Digital Payments Accepted', 'Pure Veg']",0,0
Cafe Ziyon,18.5134749415,73.8787815347,300,1,3.4,40,"Chinese, Fast Food","['Takeaway Available', 'Dinner', 'Cash', 'Lunch', 'Delivery', 'Indoor Seating', 'Digital Payments Accepted']",18,25
The Good Bowl,18.5126572358,73.8792995363,500,2,4.0,1517,"Asian, Biryani, North Indian","['Cash', 'Delivery']",47,93
A-1 Sandwizza,18.5126047779,73.8794031367,300,1,0,3,Sandwich,"['Dinner', 'Cash', 'Takeaway Available', 'Lunch', 'Delivery', 'Indoor Seating', 'Digital Payments Accepted']",0,1
Mandarin Oak,18.5126407036,73.8793126121,400,1,4.2,401,"Thai, Asian, Chinese","['Delivery', 'Cash', 'Digital Payments Accepted']",53,113
Sharayu Restaurant,18.5171412163,73.8775604591,700,2,3.5,43,"Maharashtrian, North Indian","['Dinner', 'Credit Card', 'Takeaway Available', 'Delivery', 'Cash', 'Lunch', 'Debit Card', 'Indoor Seating', 'Digital Payments Accepted', 'Air Conditioned']",17,34
J M Cafe,18.5171552047,73.8776134327,400,1,3.3,16,"Fast Food, Chinese, North Indian","['Lunch', 'Cash', 'Breakfast', 'Dinner', 'Takeaway Available', 'Free Parking', 'Indoor Seating']",4,4
Garden Seekh Kebab,18.5172553490,73.8780855015,200,1,3.8,19,Mughlai,"['Cash', 'Dinner', 'Takeaway Available', 'Indoor Seating']",9,9
Bakhtar Caterers - Biryani House,18.5161645680,73.8769821078,250,1,3.5,5,Biryani,"['Cash', 'Lunch', 'Dinner', 'Takeaway Available', 'Free Parking', 'Indoor Seating']",1,2
Roteee,18.5175042788,73.8784841448,300,1,3.2,45,"North Indian, Fast Food, Sandwich","['Dinner', 'Cash', 'Takeaway Available', 'Debit Card', 'Lunch', 'Delivery', 'Credit Card', 'Outdoor Seating', 'Digital Payments Accepted']",1,0
Delhi Chaap Express,18.5175103192,73.8785817102,150,1,2.9,25,"Pizza, Sandwich, Fast Food","['Cash', 'Dinner', 'Takeaway Available', 'Outdoor Seating', 'Sodexo', 'Pure Veg']",13,20
Clover Sandwich And Pizza,18.5176076020,73.8786135614,300,1,0,18,"Sandwich, Italian","['Dinner', 'Cash', 'Takeaway Available', 'Lunch', 'Delivery', 'Indoor Seating', 'Digital Payments Accepted']",1,1
Degchi's,18.5159172259,73.8779520616,450,1,0,0,"Biryani, Bohri","['Dinner', 'Cash', 'Takeaway Available', 'Lunch', 'Delivery', 'Indoor Seating', 'Digital Payments Accepted']",0,0
Pune Darbar,18.5159150005,73.8779946417,500,2,2.9,27,"Chinese, North Indian, Fast Food, Mughlai","['Dinner', 'Delivery', 'Lunch', 'Cash', 'Takeaway Available', 'Indoor Seating']",7,9
Garden Vada Pav Centre,18.5168363322,73.8757278398,100,1,4.1,7753,Street Food,"['Standing Tables', 'Delivery', 'Cash', 'Takeaway Available', 'Breakfast', 'Pure Veg', 'Digital Payments Accepted']",1053,314
Royal Connaught Boat Club,18.5415057034,73.8801756129,600,2,3.7,42,"North Indian, Chinese, Malwani, Seafood","['Lunch', 'Delivery', 'Credit Card', 'Dinner', 'Cash', 'Takeaway Available', 'Debit Card', 'Outdoor Seating', 'Members Only', 'Indoor Seating']",14,14
Sai Shivneri,18.5442196800,73.8780509700,600,2,3.5,19,"North Indian, Chinese","['Dinner', 'Cash', 'Credit Card', 'Lunch', 'Takeaway Available', 'Debit Card', 'Indoor Seating', 'Digital Payments Accepted']",11,1
Reddy's Family Resto And Bar,18.5446800000,73.8780170000,750,2,3.6,23,"North Indian, Chinese, Mughlai","['Dinner', 'Delivery', 'Credit Card', 'Lunch', 'Cash', 'Takeaway Available', 'Debit Card', 'Indoor Seating']",2,5
Reddy's Fast Food,18.5448760790,73.8782169297,300,1,3.3,316,"North Indian, Chinese","['Lunch', 'Debit Card', 'Cash', 'Takeaway Available', 'Dinner', 'Credit Card', 'Delivery', 'Outdoor Seating', 'Indoor Seating', 'Air Conditioned', 'Digital Payments Accepted']",39,12
J K Delicacies,18.5152321054,73.8784227893,350,1,0,5,"Biryani, Street Food","['Dinner', 'Lunch', 'Delivery', 'Cash', 'Takeaway Available', 'Indoor Seating', 'Digital Payments Accepted']",0,0
Saoji Khamang,18.5397637497,73.8912001625,400,1,4.0,772,Maharashtrian,"['Takeaway Available', 'Lunch', 'Cash', 'Dinner', 'Delivery', 'Outdoor Seating', 'Indoor Seating']",183,155
Jiffy By Grillicious,18.5396194338,73.8925633952,400,1,3.2,189,"American, North Indian, Mexican, Lebanese, Fast Food","['Dinner', 'Delivery', 'Credit Card', 'Debit Card', 'Lunch', 'Cash', 'Takeaway Available', 'Breakfast', 'Indoor Seating']",88,82
Shatranj Wine & Dine,18.5380001068,73.8945693970,1500,3,3.7,337,"North Indian, Chinese, Italian, Continental, Thai","['Dinner', 'Cash', 'Takeaway Available', 'Lunch', 'Delivery', 'Credit Card', 'Debit Card', 'Free Parking', 'Live Entertainment', 'Fullbar', 'Live Music', 'Wifi', 'Buffet', 'Karaoke', 'Live Sports Screening', 'Outdoor Seating', 'Table Reservation Not Required', 'Smoking Area']",177,190
Cafe Weekend,18.5397732860,73.8927940652,500,2,3.6,35,Fast Food,"['Dinner', 'Delivery', 'Credit Card', 'Debit Card', 'Lunch', 'Cash', 'Takeaway Available', 'Breakfast', 'Indoor Seating', 'Air Conditioned']",1,0
Green Villa Restaurant,18.5401728561,73.8914244622,450,1,3.1,92,"Chinese, Fast Food","['Cash', 'Debit Card', 'Delivery', 'Breakfast', 'Dinner', 'Credit Card', 'Takeaway Available', 'Lunch', 'Indoor Seating', 'Outdoor Seating', 'Smoking Area', 'Digital Payments Accepted']",41,11
R&J Book cafe,18.5398015770,73.8927920535,500,2,3.8,123,"Cafe, Italian, Fast Food","['Cash', 'Takeaway Available', 'Dinner', 'Delivery', 'Breakfast', 'Lunch', 'Indoor Seating', 'Digital Payments Accepted']",36,8
Buddha Paradise,18.5403270257,73.8912544772,300,1,3.3,498,"South Indian, Fast Food, Chinese","['Takeaway Available', 'Lunch', 'Cash', 'Breakfast', 'Dinner', 'Delivery', 'Outdoor Seating', 'Indoor Seating']",140,131
Prem's,18.5396334204,73.8935112208,1300,3,4.3,7310,"North Indian, Chinese, Continental, Salad","['Lunch', 'Cash', 'Takeaway Available', 'Dinner', 'Delivery', 'Credit Card', 'Valet Parking Available', 'Outdoor Seating', 'Table booking recommended', 'Wifi', 'All Day Breakfast', 'Fullbar', 'Indoor Seating', 'Axis Bank - Dining Delights', 'Smoking Area']",1300,1419
Swig,18.5397586637,73.8935014978,1400,3,4.0,1462,"Finger Food, Salad, Continental, Italian, Sandwich","['Delivery', 'Credit Card', 'Lunch', 'Cash', 'Takeaway Available', 'Debit Card', 'Dinner', 'Table booking recommended', 'LGBTQIA Friendly', 'Smoking Area', 'Live Music', 'Wine', 'Serves Cocktails', 'Nightlife', 'Live Sports Screening', 'Outdoor Seating', 'Air Conditioned', 'Wifi', 'DJ', 'Beer', 'Live Entertainment', 'Digital Payments Accepted', 'Fullbar', 'Indoor Seating']",756,697
Sweet Chariot Cafe,18.5397186113,73.8939574733,700,2,3.6,686,"Cafe, Italian, Fast Food","['Lunch', 'Cash', 'Delivery', 'Credit Card', 'Breakfast', 'No Alcohol Available', 'Dinner', 'Takeaway Available', 'Debit Card', 'Outdoor Seating', 'Digital Payments Accepted', 'Desserts and Bakes', 'Air Conditioned', 'Smoking Area', 'All Day Breakfast']",301,336
Garden Bar,18.5408089241,73.8911636174,500,2,0,10,Salad,"['Lunch', 'Cash', 'Dinner', 'Delivery']",9,10
Dilkhush Chinese Fast Food,18.5151300524,73.8769864663,200,1,4.0,3568,Chinese,"['Dinner', 'Cash', 'Takeaway Available', 'Lunch', 'Delivery', 'Indoor Seating', 'Digital Payments Accepted']",33,4
Dorabjee & Sons,18.5154840000,73.8770200000,600,2,4.0,1195,"Parsi, Biryani","['Dinner', 'Cash', 'Takeaway Available', 'Lunch', 'Delivery', 'Indoor Seating']",547,556
Cafe Yezdan,18.5149170444,73.8768761605,150,1,4.1,228,"Fast Food, Street Food, Tea","['Cash', 'Takeaway Available', 'Lunch', 'Breakfast', 'Dinner', 'Indoor Seating']",130,176
Dilkhush Corner,18.5149000000,73.8768990000,300,1,0,0,"Fast Food, Seafood","['Dinner', 'Cash', 'Lunch', 'Takeaway Available', 'Indoor Seating', 'Digital Payments Accepted']",0,0
Great Poona Cold Drink House,18.5144967503,73.8772389293,200,1,4.0,535,"Ice Cream, Desserts, Beverages","['Delivery', 'Cash', 'Takeaway Available', 'Indoor Seating', 'Desserts and Bakes']",42,61
Regal Sweets,18.5144970682,73.8773214072,150,1,3.1,16,Mithai,"['No Seating Available', 'Takeaway Available', 'Cash', 'Desserts and Bakes']",3,2
Hotel Sahil,18.5143460000,73.8768890000,500,2,0,2,"North Indian, Chinese","['Dinner', 'Takeaway Available', 'Lunch', 'Cash', 'Breakfast', 'Indoor Seating']",1,0
Haji Juice And Bites,18.5151993594,73.8779554144,200,1,0,1,"Beverages, Juices","['Cash', 'Takeaway Available', 'Delivery', 'Outdoor Seating', 'Digital Payments Accepted', 'Indoor Seating']",1,0
Wong's Kitchen,18.5152620000,73.8779570000,500,2,0,4,"Chinese, Seafood","['Dinner', 'Cash', 'Takeaway Available', 'Debit Card', 'Lunch', 'Delivery', 'Credit Card', 'Indoor Seating', 'Air Conditioned']",0,0
Cafe Navruz,18.5152640000,73.8779570000,600,2,0,1,"Iranian, Mughlai, North Indian","['Dinner', 'Cash', 'Takeaway Available', 'Debit Card', 'Lunch', 'Delivery', 'Credit Card', 'Indoor Seating', 'Air Conditioned']",0,0
Cakes 'N' Coffee,18.5151583475,73.8779748604,400,1,3.8,790,Bakery,"['Delivery', 'Credit Card', 'Cash', 'Takeaway Available', 'Debit Card', 'Indoor Seating', 'Desserts and Bakes']",40,20
Husseny Bakery,18.5151217864,73.8779859245,150,1,4.1,449,"Bakery, Desserts","['Takeaway Available', 'No Seating Available', 'Cash', 'Debit Card', 'Delivery', 'Credit Card', 'Desserts and Bakes']",12,9
Ya Khwaja Garib Nawaz Hotel,18.5148776220,73.8779450208,500,2,3.5,17,"North Indian, Mughlai, Chinese","['Dinner', 'Delivery', 'Lunch', 'Cash', 'Takeaway Available', 'Indoor Seating']",8,23
Nawabi Zaika,18.5141912256,73.8774330541,1000,3,0,9,"North Indian, Chinese, Maharashtrian, Beverages","['Cash', 'Takeaway Available', 'Dinner', 'Delivery', 'Lunch']",1,2
Pizza Corner,18.5144493797,73.8778635487,300,1,3.6,31,Fast Food,"['Dinner', 'Cash', 'Takeaway Available', 'Lunch', 'Delivery', 'Breakfast', 'Indoor Seating']",1,0
Cafe 52,18.5153268461,73.8738740981,300,1,3.3,1042,"Fast Food, Lebanese, Parsi, Chinese, Rolls","['Lunch', 'Delivery', 'Credit Card', 'Debit Card', 'Dinner', 'Cash', 'Takeaway Available', 'Free Parking', 'Indoor Seating']",76,21
Puzzles,18.5153344762,73.8738700747,400,1,0,2,"North Indian, South Indian, Maharashtrian","['Lunch', 'Delivery', 'Credit Card', 'Debit Card', 'Dinner', 'Cash', 'Takeaway Available', 'Breakfast', 'Digital Payments Accepted']",0,0
Hite Bar,18.5153637250,73.8738667220,300,1,4.0,2617,"Burger, Lebanese, Rolls","['Lunch', 'Cash', 'Takeaway Available', 'Dinner', 'Delivery', 'Breakfast', 'Free Parking', 'Indoor Seating']",252,14
Hot Bean Cafe,18.5165454361,73.8743149862,200,1,0,2,"Fast Food, Beverages","['Dinner', 'Delivery', 'Breakfast', 'Lunch', 'Cash', 'Takeaway Available', 'Indoor Seating', 'Digital Payments Accepted']",2,0
Red Hot Chinese Center,18.5165762743,73.8732927293,250,1,4.0,59,Chinese,"['No Seating Available', 'Dinner', 'Delivery', 'Lunch', 'Cash', 'Takeaway Available']",31,1
Majestic Restaurant,18.5167714767,73.8749258593,200,1,3.1,5,"North Indian, Fast Food","['Dinner', 'Takeaway Available', 'Lunch', 'Cash', 'Breakfast', 'Indoor Seating']",2,3
Foodies,18.5167511299,73.8749704510,400,1,2.9,1410,"Fast Food, Sandwich, Italian","['No Seating Available', 'Dinner', 'Cash', 'Takeaway Available', 'Lunch', 'Delivery', 'Digital Payments Accepted', 'Pure Veg']",131,23
Raibhan,18.5164262162,73.8721665367,350,1,3.7,45,Maharashtrian,"['Dinner', 'Cash', 'Takeaway Available', 'Debit Card', 'Lunch', 'Delivery', 'Credit Card', 'Indoor Seating', 'Digital Payments Accepted']",3,3
Cafe Blitz,18.5163346553,73.8717883453,100,1,0,1,"South Indian, Street Food","['Takeaway Available', 'Lunch', 'Cash', 'Breakfast', 'Indoor Seating']",0,0
PGI Restaurant,18.5154358933,73.8711261749,600,2,3.7,74,"North Indian, Chinese, Seafood","['Dinner', 'Cash', 'Takeaway Available', 'Debit Card', 'Lunch', 'Delivery', 'Credit Card', 'Fullbar', 'Indoor Seating', 'Outdoor Seating', 'Air Conditioned']",35,38
The Cake Studio,18.5141597512,73.8712358102,350,1,3.9,179,"Desserts, Bakery","['No Seating Available', 'Cash', 'Takeaway Available', 'Credit Card', 'Delivery', 'Debit Card', 'Desserts and Bakes', 'Air Conditioned', 'Pure Veg']",65,281
Chow Singh,18.5125084460,73.8802044466,350,1,0,3,"North Indian, Chinese","['Lunch', 'Delivery', 'Dinner', 'Cash', 'Takeaway Available', 'Digital Payments Accepted']",0,0
11 East Street Cafe,18.5124900063,73.8801752776,1600,3,4.1,5119,"Cafe, Cuisine Varies, Continental, Mughlai, Goan, Chinese, Seafood","['Dinner', 'Delivery', 'Credit Card', 'Debit Card', 'Lunch', 'Cash', 'Takeaway Available', 'Live Sports Screening', 'Fullbar', 'Indoor Seating', 'Air Conditioned', 'LGBTQIA Friendly', 'Smoking Area', 'Nightlife', 'Outdoor Seating', 'Table booking recommended', 'Axis Bank - Dining Delights', 'Wifi', 'Buffet']",2017,2466
Tim Luck Luck,18.5126543745,73.8806567341,1000,3,4.1,1154,"North Indian, Chinese, Seafood","['Takeaway Available', 'Debit Card', 'Dinner', 'Cash', 'Delivery', 'Credit Card', 'Lunch', 'Smoking Area', 'Live Sports Screening', 'Outdoor Seating', 'Indoor Seating', 'Air Conditioned', 'Fullbar', 'Live Music', 'Digital Payments Accepted']",503,519
Sheetal Arch Restaurant,18.5126667736,73.8806574047,800,2,3.9,813,"North Indian, South Indian, Chinese, Street Food","['Dinner', 'Cash', 'Delivery', 'Debit Card', 'Lunch', 'Takeaway Available', 'Credit Card', 'Fullbar', 'Indoor Seating', 'Pure Veg', 'Outdoor Seating', 'Table booking recommended', 'Wifi', 'Desserts and Bakes']",106,79
Sweet Truth,18.5125707597,73.8794108480,300,1,4.2,298,"Bakery, Desserts, Ice Cream","['Delivery', 'Debit Card', 'Cash', 'Credit Card', 'Card Upon Delivery', 'Desserts and Bakes']",43,73
Ovenstory Pizza,18.5125682163,73.8794034719,600,2,4.1,895,Pizza,"['Lunch', 'Cash', 'Credit Card', 'Dinner', 'Delivery', 'Debit Card']",64,70
Behrouz Biryani,18.5125720314,73.8793967664,700,2,4.1,1613,"Biryani, North Indian, Mughlai","['Lunch', 'Cash', 'Credit Card', 'Dinner', 'Delivery', 'Debit Card']",155,120
Faasos,18.5126066855,73.8793870434,550,2,4.2,2113,"Wraps, North Indian, Biryani, Fast Food","['No Seating Available', 'Dinner', 'Delivery', 'Lunch', 'Cash']",92,63
Firangi Bake,18.5125850664,73.8793786615,400,1,3.8,406,"Mexican, Italian, Modern Indian","['Lunch', 'Cash', 'Credit Card', 'Dinner', 'Delivery', 'Debit Card']",52,34
The Biryani Life,18.5125850664,73.8793783262,350,1,3.9,85,"Biryani, North Indian","['Lunch', 'Cash', 'Delivery', 'Dinner']",4,20
Sardarji's Tandoor,18.5111569328,73.8804411516,400,1,3.5,17,North Indian,"['No Seating Available', 'Cash', 'Dinner', 'Takeaway Available']",12,4
What' A Sandwich!,18.5111531177,73.8800780475,300,1,4.1,473,"Sandwich, American, Fast Food","['Dinner', 'Delivery', 'Lunch', 'Cash', 'Takeaway Available', 'Indoor Seating', 'Digital Payments Accepted']",145,163
Bikaner Sev Bhandar,18.5118328497,73.8788834587,150,1,3.5,10,"Mithai, Street Food","['Cash', 'No Alcohol Available', 'Takeaway Available', 'No Seating Available', 'Pure Veg', 'Desserts and Bakes']",7,20
Aika Delicacies - Diabetic Indulgence,18.5416137802,73.8860077411,400,1,3.9,57,"Desserts, Bakery","['No Seating Available', 'Takeaway Available', 'Cash', 'Desserts and Bakes']",35,24
Radio Hotel,18.5139426090,73.8773019612,450,1,4.0,2150,"North Indian, Chinese, Mughlai","['Dinner', 'Delivery', 'Lunch', 'Cash', 'Takeaway Available', 'Indoor Seating']",182,125
Bismillah Hotel,18.5137814212,73.8768171519,400,1,3.7,306,"North Indian, Mughlai","['Dinner', 'Cash', 'Takeaway Available', 'Lunch', 'Delivery', 'Breakfast', 'Indoor Seating', 'Digital Payments Accepted']",7,19
Bhavnagri Fancy Sweet Mart,18.5140052400,73.8778950647,300,1,4.4,216,"Mithai, Street Food","['No Seating Available', 'Delivery', 'Debit Card', 'Cash', 'Takeaway Available', 'Credit Card', 'Digital Payments Accepted', 'Pure Veg', 'Desserts and Bakes']",3,24
Shree Krishna Pizza,18.5142624406,73.8777817413,350,1,3.8,1049,"Fast Food, Italian, Beverages","['Dinner', 'Cash', 'Takeaway Available', 'Credit Card', 'Debit Card', 'Lunch', 'Delivery', 'Indoor Seating', 'Digital Payments Accepted', 'Pure Veg']",70,103
Shree Krishna Sandwiches Fries And Shakes,18.5142869207,73.8777874410,400,1,3.6,49,"Sandwich, Fast Food, Beverages","['Dinner', 'Lunch', 'Delivery', 'Cash', 'Takeaway Available', 'Indoor Seating', 'Air Conditioned']",4,7
Jannat Restaurant,18.5133337827,73.8771872967,500,2,0,2,"North Indian, Mughlai, Chinese","['Dinner', 'Cash', 'Takeaway Available', 'Lunch', 'Delivery', 'Indoor Seating', 'Digital Payments Accepted']",2,0
Al Nayaab,18.5133337827,73.8771872967,500,2,3.7,4851,"North Indian, Mughlai, Naga, Chinese","['Dinner', 'Delivery', 'Lunch', 'Cash', 'Takeaway Available', 'Indoor Seating']",106,6
Mr. Gelato,18.5142735679,73.8778135926,150,1,3.3,62,"Desserts, Fast Food","['Cash', 'Takeaway Available', 'Debit Card', 'Delivery', 'Credit Card', 'Indoor Seating', 'Digital Payments Accepted', 'Desserts and Bakes']",3,25
Shree Krishna Juice And Milkshake,18.5143300000,73.8778330000,150,1,0,0,"Juices, Beverages, Ice Cream","['Cash', 'Takeaway Available', 'Standing Tables', 'Delivery', 'Desserts and Bakes']",0,1
Gulzar Restaurant,18.5135159539,73.8765744120,150,1,3.3,12,"Street Food, Fast Food","['Dinner', 'Takeaway Available', 'Lunch', 'Cash', 'Breakfast', 'Indoor Seating']",4,3
Springold - The Luxury Cafe,18.5349023972,73.8773854449,500,2,3.6,19,"Continental, Chinese, Cafe, Beverages","['Dinner', 'Delivery', 'Debit Card', 'Lunch', 'Cash', 'Takeaway Available', 'Credit Card', 'Indoor Seating', 'Air Conditioned', 'Pure Veg', 'Digital Payments Accepted']",14,104
Shree Sainath Corner,18.5347692032,73.8777210563,200,1,3.9,459,"South Indian, Maharashtrian","['No Alcohol Available', 'Delivery', 'Standing Tables', 'Cash', 'Takeaway Available', 'Digital Payments Accepted', 'Pure Veg', 'Free Parking']",8,1
Chop Chop - Wok to Go,18.5408391221,73.8911042735,700,2,3.6,891,"Chinese, Asian, Japanese","['No Seating Available', 'Dinner', 'Delivery', 'Lunch', 'Cash', 'Takeaway Available']",66,92
Best Belgian waffle,18.5410743490,73.8910891861,300,1,3.8,1037,"Desserts, Beverages","['Takeaway Available', 'Cash', 'Delivery', 'Desserts and Bakes', 'Indoor Seating']",59,23
The Cheesecake Pops,18.5410784814,73.8910891861,300,1,4.5,772,Desserts,"['Standing Tables', 'Delivery', 'Cash', 'Takeaway Available', 'Desserts and Bakes']",95,47
Tavern,18.5412866887,73.8902680948,1000,3,3.3,9,"Continental, Chinese, Fast Food","['Cash', 'Takeaway Available', 'Lunch', 'Credit Card', 'Delivery', 'Dinner', 'Debit Card', 'Outdoor Seating', 'Air Conditioned', 'Wifi', 'Digital Payments Accepted', 'Indoor Seating', 'Smoking Area', 'Fullbar']",0,8
K Anna Maggie Point,18.5422129696,73.8903056458,200,1,3.4,19,Fast Food,"['Lunch', 'Cash', 'Breakfast', 'Standing Tables', 'Takeaway Available', 'Digital Payments Accepted']",10,3
Chef's Kitchen,18.5395545870,73.8945331424,600,2,0,0,"North Indian, Fast Food","['No Seating Available', 'Dinner', 'Delivery', 'Lunch', 'Cash', 'Takeaway Available']",0,0
Nanumal Bhojraj,18.5116385954,73.8788821176,600,2,3.8,259,"North Indian, Fast Food, Chinese, South Indian","['Lunch', 'Cash', 'Takeaway Available', 'Breakfast', 'No Alcohol Available', 'Dinner', 'Delivery', 'Credit Card', 'Debit Card', 'Indoor Seating', 'Table booking for Groups', 'Air Conditioned', 'Serves Jain Food', 'Digital Payments Accepted', 'Table Reservation Not Required', 'Pure Veg']",27,32
Priya,18.5116236528,73.8788254559,300,1,4.3,906,"South Indian, Fast Food, Beverages","['Lunch', 'Cash', 'Takeaway Available', 'Breakfast', 'Dinner', 'Delivery', 'Sodexo', 'Indoor Seating', 'Pure Veg']",198,165
City Bakery,18.5115909061,73.8787480071,200,1,3.8,47,"Bakery, Desserts","['No Seating Available', 'Takeaway Available', 'Cash', 'Desserts and Bakes']",21,28
New Poona Cold Drinks House,18.5115018860,73.8785703108,150,1,4.2,357,"Ice Cream, Beverages","['Delivery', 'Debit Card', 'Cash', 'Takeaway Available', 'Credit Card', 'Indoor Seating', 'Pure Veg', 'Desserts and Bakes']",87,109
Billi's Food Corner,18.5113308402,73.8788764179,300,1,3.3,27,"Fast Food, North Indian","['Dinner', 'Delivery', 'Lunch', 'Cash', 'Takeaway Available', 'Pure Veg', 'Indoor Seating', 'Free Parking']",9,4
Kohinoor Restaurant,18.5113171692,73.8787161559,200,1,4.2,688,"South Indian, Street Food, Beverages, Desserts","['Cash', 'Takeaway Available', 'Credit Card', 'Dinner', 'Delivery', 'Debit Card', 'Lunch', 'Breakfast', 'Indoor Seating']",208,241
Persian Restaurant,18.5121072216,73.8778015226,500,2,3.6,35,"Chinese, Street Food","['Dinner', 'Delivery', 'Lunch', 'Cash', 'Takeaway Available', 'Indoor Seating']",6,0
Chaitanya Paranthas,18.5348051242,73.8779198751,450,1,3.8,3354,"Chinese, North Indian","['Dinner', 'Delivery', 'Credit Card', 'Lunch', 'Cash', 'Takeaway Available', 'Debit Card', 'Free Parking', 'Indoor Seating', 'Pure Veg', 'Outdoor Seating', 'Serves Jain Food']",208,88
